stop_id,stop_name,stop_lat,stop_lon,stop_number,short_stop_name
2735,"Zürich, Zoo/Forrenweid",47.3803530555556,8.57793944444444,4,ZOOF
2735,"Zürich, Zoo/Forrenweid",47.3803530555556,8.57793944444444,4,ZOOF
2740,"Zürich, Aargauerstrasse",47.3921030555556,8.50218416666667,7,AARG
2740,"Zürich, Aargauerstrasse",47.3921030555556,8.50218416666667,7,AARG
2741,"Rüschlikon, Alsenstrasse",47.3018022222222,8.55715472222222,9,RALS
1638,"Adliswil, Bahnhof",47.311515,8.52443861111111,28,BADL01
2750,"Zürich, Fischerweg",47.3935180555556,8.5125975,857,FWEG
2008,"Dübendorf, Flugplatz",47.4025663888889,8.62776111111111,863,FLUP
2769,"Zürich, Flurstrasse",47.3815558333333,8.49192194444444,867,FLUR
2769,"Zürich, Flurstrasse",47.3815558333333,8.49192194444444,867,FLUR
2771,"Zürich, Flühgasse",47.3506002777778,8.56934916666667,868,FLUE
2771,"Zürich, Flühgasse",47.3506002777778,8.56934916666667,868,FLUE
1571,"Zürich, Frankental",47.4055691666667,8.48138638888889,872,FRAN
1571,"Zürich, Frankental",47.4055691666667,8.48138638888889,872,FRAN
2253,"Zürich, Freihofstrasse",47.3832686111111,8.49938555555556,883,FREI
2253,"Zürich, Freihofstrasse",47.3832686111111,8.49938555555556,883,FREI
2803,"Zürich, Freilagerstrasse",47.3793058333333,8.49106972222222,884,FLAG
2463,"Zürich, Friedackerstrasse",47.4060327777778,8.55316833333333,888,FRIA
2463,"Zürich, Friedackerstrasse",47.4060327777778,8.55316833333333,888,FRIA
2545,"Zürich, Friedhof Eichbühl",47.3828722222222,8.47467833333333,893,FEIC
2312,"Zürich, Friedhof Enzenbühl",47.3510341666667,8.58009277777778,894,ENZE
2312,"Zürich, Friedhof Enzenbühl",47.3510341666667,8.58009277777778,894,ENZE
2823,"Zürich, Friedhof Hönggerberg",47.4086994444444,8.49428694444445,895,FHOE
2823,"Zürich, Friedhof Hönggerberg",47.4086994444444,8.49428694444445,895,FHOE
2825,"Zürich, Friedhof Schwandenholz",47.4212758333333,8.53758305555556,896,FSWA
2825,"Zürich, Friedhof Schwandenholz",47.4212758333333,8.53758305555556,896,FSWA
2826,"Zürich, Friedhof Sihlfeld",47.376065,8.510935,897,FSIH
2826,"Zürich, Friedhof Sihlfeld",47.376065,8.510935,897,FSIH
2466,"Zürich, Friedhof Witikon",47.3614172222222,8.60238388888889,899,FWIT
2466,"Zürich, Friedhof Witikon",47.3614172222222,8.60238388888889,899,FWIT
2440,"Zürich, Friedrichstrasse",47.4038016666667,8.56804,901,FRDR
2440,"Zürich, Friedrichstrasse",47.4038016666667,8.56804,901,FRDR
2660,"Zürich, Friesenberg",47.3644622222222,8.50790833333333,902,FRIB
2660,"Zürich, Friesenberg",47.3644622222222,8.50790833333333,902,FRIB
2662,"Zürich, Friesenbergstrasse",47.3623388888889,8.50505916666667,904,FRIE
2662,"Zürich, Friesenbergstrasse",47.3623388888889,8.50505916666667,904,FRIE
2441,"Zürich, Frohburg",47.4042269444444,8.56225916666667,908,FROB
2441,"Zürich, Frohburg",47.4042269444444,8.56225916666667,908,FROB
1694,"Glattbrugg, Frohbühlstrasse",47.4283458333333,8.55788638888889,909,FROH07
2445,"Zürich, Fronwald",47.4220225,8.50976611111111,914,FRON
2445,"Zürich, Fronwald",47.4220225,8.50976611111111,914,FRON
2678,"Zürich, Frymannstrasse",47.3355863888889,8.51866972222222,916,FRYM
2678,"Zürich, Frymannstrasse",47.3355863888889,8.51866972222222,916,FRYM
2680,"Zürich, Friedrichstrasse",47.3553727777778,8.55680888888889,917,FROE
2680,"Zürich, Friedrichstrasse",47.3553727777778,8.55680888888889,917,FROE
2705,"Zürich, Förrlibuckstrasse",47.3923163888889,8.51701083333333,927,FOER
2705,"Zürich, Förrlibuckstrasse",47.3923163888889,8.51701083333333,927,FOER
2733,"Küsnacht ZH, Gartenstrasse",47.31148,8.58750027777778,933,GART
2505,"Schlieren, Gasometerbrücke",47.3979183333333,8.4598025,935,GASO
2505,"Schlieren, Gasometerbrücke",47.3979183333333,8.4598025,935,GASO
2198,"Zürich, Geeringstrasse",47.4144308333333,8.48020805555556,944,GEER
2198,"Zürich, Geeringstrasse",47.4144308333333,8.48020805555556,944,GEER
2198,"Zürich, Geeringstrasse",47.4144308333333,8.48020805555556,944,GEER
2459,"Fällanden, Gemeindehaus",47.3717369444444,8.63997583333333,947,FAEL
2459,"Fällanden, Gemeindehaus",47.3717369444444,8.63997583333333,947,FAEL
1527,"Weiningen ZH, Gemeindehaus",47.4187836111111,8.43120583333333,948,GEME
2790,"Zollikon, Gemeindehaus",47.3407483333333,8.57596888888889,961,GDEH
1816,"Zürich, Gessnerallee",47.3769461111111,8.53682833333333,972,GESS
1816,"Zürich, Gessnerallee",47.3769461111111,8.53682833333333,972,GESS
2811,"Zürich, Giblenstrasse",47.4107266666667,8.4859925,979,GIBL
2811,"Zürich, Giblenstrasse",47.4107266666667,8.4859925,979,GIBL
2048,"Dietikon, Gjuchstrasse",47.4080313888889,8.3931775,990,GJUC
1067,"Glattbrugg, Zentrum",47.4335077777778,8.56586083333333,992,GLAG07
1452,"Glattbrugg, Bahnhof",47.4306383333333,8.55929027777778,994,BGLA07
1452,"Glattbrugg, Bahnhof",47.4306383333333,8.55929027777778,994,BGLA07
2052,"Zürich, Glattwiesen",47.4016897222222,8.58158833333333,998,GLAT
2052,"Zürich, Glattwiesen",47.4016897222222,8.58158833333333,998,GLAT
2052,"Zürich, Glattwiesen",47.4016897222222,8.58158833333333,998,GLAT
2052,"Zürich, Glattwiesen",47.4016897222222,8.58158833333333,998,GLAT
2454,"Zürich, Glaubtenstrasse",47.4148152777778,8.518725,1000,GLAU
2454,"Zürich, Glaubtenstrasse",47.4148152777778,8.518725,1000,GLAU
2454,"Zürich, Glaubtenstrasse",47.4148152777778,8.518725,1000,GLAU
2454,"Zürich, Glaubtenstrasse",47.4148152777778,8.518725,1000,GLAU
2454,"Zürich, Glaubtenstrasse",47.4148152777778,8.518725,1000,GLAU
2454,"Zürich, Glaubtenstrasse",47.4148152777778,8.518725,1000,GLAU
2715,"Gockhausen, Dorf",47.3820986111111,8.59777611111111,1006,GDOR
2715,"Gockhausen, Dorf",47.3820986111111,8.59777611111111,1006,GDOR
2718,"Zürich, Goldackerweg",47.3722433333333,8.4872625,1007,GOLD
2718,"Zürich, Goldackerweg",47.3722433333333,8.4872625,1007,GOLD
2746,"Küsnacht ZH, Goldbacherstrasse",47.3295880555556,8.58021611111111,1011,GOBA
2746,"Küsnacht ZH, Goldbacherstrasse",47.3295880555556,8.58021611111111,1011,GOBA
701,"Zürich, Goldbrunnenplatz",47.3702830555556,8.5136125,1012,GOLP
701,"Zürich, Goldbrunnenplatz",47.3702830555556,8.5136125,1012,GOLP
701,"Zürich, Goldbrunnenplatz",47.3702830555556,8.5136125,1012,GOLP
701,"Zürich, Goldbrunnenplatz",47.3702830555556,8.5136125,1012,GOLP
2747,"Zollikon, Goldhaldenplatz",47.3348213888889,8.57768166666667,1013,GOHA
2747,"Zollikon, Goldhaldenplatz",47.3348213888889,8.57768166666667,1013,GOHA
1526,"Kilchberg ZH, Gottlieb-Binder",47.3228744444444,8.54263444444445,1018,GOBI
1526,"Kilchberg ZH, Gottlieb-Binder",47.3228744444444,8.54263444444445,1018,GOBI
2770,"Zürich, Grimselstrasse",47.387045,8.48971277777778,1026,GRIM
2770,"Zürich, Grimselstrasse",47.387045,8.48971277777778,1026,GRIM
2010,"Geroldswil, Grindlen",47.4180208333333,8.41516944444444,1028,GRIN
2010,"Geroldswil, Grindlen",47.4180208333333,8.41516944444444,1028,GRIN
2021,"Dietikon, Grünau",47.4114558333333,8.40431611111111,1039,GRAU
2021,"Dietikon, Grünau",47.4114558333333,8.40431611111111,1039,GRAU
2544,"Zürich, Grünaustrasse",47.395505,8.48921722222222,1041,GRUN
2544,"Zürich, Grünaustrasse",47.395505,8.48921722222222,1041,GRUN
2544,"Zürich, Grünaustrasse",47.395505,8.48921722222222,1041,GRUN
2544,"Zürich, Grünaustrasse",47.395505,8.48921722222222,1041,GRUN
2040,"Dübendorf, Grüzenstrasse",47.3915638888889,8.61713583333333,1054,GRUZ
2045,"Zürich, Guggachstrasse",47.3955983333333,8.5400475,1061,GUGG
2045,"Zürich, Guggachstrasse",47.3955983333333,8.5400475,1061,GUGG
2857,"Zürich, Gutstrasse",47.3717894444444,8.50638694444445,1073,GUTS
2857,"Zürich, Gutstrasse",47.3717894444444,8.50638694444445,1073,GUTS
2859,"Zumikon, Gössikon",47.3317222222222,8.61405444444445,1075,GOES
2859,"Zumikon, Gössikon",47.3317222222222,8.61405444444445,1075,GOES
2529,"Zürich, Güterbahnhof",47.3804180555556,8.51967055555555,1076,GUET
2529,"Zürich, Güterbahnhof",47.3804180555556,8.51967055555555,1076,GUET
2338,"Dietikon, Hagackerstrasse",47.4174486111111,8.39648694444444,1091,HAGA
2338,"Dietikon, Hagackerstrasse",47.4174486111111,8.39648694444444,1091,HAGA
2339,"Oetwil an der Limmat, Halde",47.4255791666667,8.39981388888889,1094,OHAL
2339,"Oetwil an der Limmat, Halde",47.4255791666667,8.39981388888889,1094,OHAL
2258,"Zürich, Haldenbach",47.3801125,8.54812361111111,1098,HALB
2258,"Zürich, Haldenbach",47.3801125,8.54812361111111,1098,HALB
2302,"Zürich, Haldenegg",47.3800708333333,8.54403083333333,1100,HEGG
2302,"Zürich, Haldenegg",47.3800708333333,8.54403083333333,1100,HEGG
2302,"Zürich, Haldenegg",47.3800708333333,8.54403083333333,1100,HEGG
2302,"Zürich, Haldenegg",47.3800708333333,8.54403083333333,1100,HEGG
2757,"Küsnacht ZH, Hallenbad",47.3135461111111,8.58508444444444,1106,HABA
2792,"Zürich, Hardhof",47.3964563888889,8.49732972222222,1120,HARH
2792,"Zürich, Hardhof",47.3964563888889,8.49732972222222,1120,HARH
2526,"Zürich, Hardplatz",47.3822769444444,8.51422527777778,1122,HARP
2526,"Zürich, Hardplatz",47.3822769444444,8.51422527777778,1122,HARP
2526,"Zürich, Hardplatz",47.3822769444444,8.51422527777778,1122,HARP
2526,"Zürich, Hardplatz",47.3822769444444,8.51422527777778,1122,HARP
2526,"Zürich, Hardplatz",47.3822769444444,8.51422527777778,1122,HARP
2308,"Zürich, Hedwigsteig",47.3603861111111,8.56483055555556,1138,HEDW
2308,"Zürich, Hedwigsteig",47.3603861111111,8.56483055555556,1138,HEDW
2812,"Zürich, Heerenwiesen",47.4048205555556,8.57605111111111,1139,HEER
2812,"Zürich, Heerenwiesen",47.4048205555556,8.57605111111111,1139,HEER
2812,"Zürich, Heerenwiesen",47.4048205555556,8.57605111111111,1139,HEER
2812,"Zürich, Heerenwiesen",47.4048205555556,8.57605111111111,1139,HEER
2812,"Zürich, Heerenwiesen",47.4048205555556,8.57605111111111,1139,HEER
2812,"Zürich, Heerenwiesen",47.4048205555556,8.57605111111111,1139,HEER
2836,"Zürich, Hegianwandweg",47.3567705555556,8.50995166666667,1143,HEGA
2836,"Zürich, Hegianwandweg",47.3567705555556,8.50995166666667,1143,HEGA
2113,"Zürich, Hegibachplatz",47.3614619444444,8.55966361111111,1144,HEGI
2113,"Zürich, Hegibachplatz",47.3614619444444,8.55966361111111,1144,HEGI
2113,"Zürich, Hegibachplatz",47.3614619444444,8.55966361111111,1144,HEGI
2113,"Zürich, Hegibachplatz",47.3614619444444,8.55966361111111,1144,HEGI
2113,"Zürich, Hegibachplatz",47.3614619444444,8.55966361111111,1144,HEGI
2113,"Zürich, Hegibachplatz",47.3614619444444,8.55966361111111,1144,HEGI
2113,"Zürich, Hegibachplatz",47.3614619444444,8.55966361111111,1144,HEGI
2050,"Schlieren, Heimeliweg",47.3945441666667,8.43727166666667,1151,HEIM
2050,"Schlieren, Heimeliweg",47.3945441666667,8.43727166666667,1151,HEIM
1454,"Zürich, Heizenholz",47.4120958333333,8.48380666666667,1156,HEIZ
1454,"Zürich, Heizenholz",47.4120958333333,8.48380666666667,1156,HEIZ
1454,"Zürich, Heizenholz",47.4120958333333,8.48380666666667,1156,HEIZ
2854,"Zürich, Helmhaus",47.3699569444444,8.54343722222222,1157,HELM
2854,"Zürich, Helmhaus",47.3699569444444,8.54343722222222,1157,HELM
2528,"Zürich, Helvetiaplatz",47.3761097222222,8.52539638888889,1158,HELV
2528,"Zürich, Helvetiaplatz",47.3761097222222,8.52539638888889,1158,HELV
2528,"Zürich, Helvetiaplatz",47.3761097222222,8.52539638888889,1158,HELV
2528,"Zürich, Helvetiaplatz",47.3761097222222,8.52539638888889,1158,HELV
2472,"Zürich, Herbstweg",47.4088891666667,8.56472916666667,1160,HERB
2868,"Zürich, Herdernstrasse",47.3846394444444,8.50779638888889,1162,HERD
2868,"Zürich, Herdernstrasse",47.3846394444444,8.50779638888889,1162,HERD
2868,"Zürich, Herdernstrasse",47.3846394444444,8.50779638888889,1162,HERD
2553,"Zürich, Hertensteinstrasse",47.4228913888889,8.54360694444444,1175,HERT
2553,"Zürich, Hertensteinstrasse",47.4228913888889,8.54360694444444,1175,HERT
1581,"Wallisellen, Herti",47.4165425,8.57864694444445,1176,HRTI07
1581,"Wallisellen, Herti",47.4165425,8.57864694444445,1176,HRTI07
2332,"Urdorf, Herweg",47.39355,8.41786055555556,1178,HWEG
2332,"Urdorf, Herweg",47.39355,8.41786055555556,1178,HWEG
2422,"Zürich, Herzogenmühlestrasse",47.4071019444444,8.57273416666667,1179,HERZ
2422,"Zürich, Herzogenmühlestrasse",47.4071019444444,8.57273416666667,1179,HERZ
2569,"Küsnacht ZH, Hesligenstrasse",47.3157525,8.59294916666667,1182,HESL
2569,"Küsnacht ZH, Hesligenstrasse",47.3157525,8.59294916666667,1182,HESL
1908,"Zürich, Heuried",47.3690688888889,8.50582916666667,1187,HEUR
1908,"Zürich, Heuried",47.3690688888889,8.50582916666667,1187,HEUR
1908,"Zürich, Heuried",47.3690688888889,8.50582916666667,1187,HEUR
2577,"Küsnacht ZH, Himmelistrasse",47.31371,8.59209805555555,1189,HIST
2577,"Küsnacht ZH, Himmelistrasse",47.31371,8.59209805555555,1189,HIST
2606,"Zürich, Hinterbergstrasse",47.3801044444444,8.55454638888889,1194,HINT
1532,"Zürich, Hirschwiesenstrasse",47.4001275,8.54333388888889,1215,HIRS
1532,"Zürich, Hirschwiesenstrasse",47.4001275,8.54333388888889,1215,HIRS
2815,"Zürich, Hirzenbach",47.40324,8.58762333333333,1220,HIRZ
2815,"Zürich, Hirzenbach",47.40324,8.58762333333333,1220,HIRZ
2039,"Dietikon, Hofacker",47.3984455555556,8.41118111111111,1226,HACK
2039,"Dietikon, Hofacker",47.3984455555556,8.41118111111111,1226,HACK
1536,"Adliswil, Hofackerstrasse",47.3152283333333,8.535695,1227,HOFA01
1536,"Adliswil, Hofackerstrasse",47.3152283333333,8.535695,1227,HOFA01
1372,"Dübendorf, Hoffnung",47.3960483333333,8.599775,1228,HOFF
1372,"Dübendorf, Hoffnung",47.3960483333333,8.599775,1228,HOFF
2841,"Zürich, Hohenklingensteig",47.4013705555556,8.49011444444444,1231,HOHE
2841,"Zürich, Hohenklingensteig",47.4013705555556,8.49011444444444,1231,HOHE
2527,"Zürich, Bäckeranlage",47.3782297222222,8.52283083333333,1234,BANL
2527,"Zürich, Bäckeranlage",47.3782297222222,8.52283083333333,1234,BANL
2527,"Zürich, Bäckeranlage",47.3782297222222,8.52283083333333,1234,BANL
2527,"Zürich, Bäckeranlage",47.3782297222222,8.52283083333333,1234,BANL
2849,"Zürich, Holzerhurd",47.4237713888889,8.49664,1239,HOLZ
2858,"Kilchberg ZH, Hornhaldenstr.",47.3318305555556,8.54201277777778,1249,HORN
2858,"Kilchberg ZH, Hornhaldenstr.",47.3318305555556,8.54201277777778,1249,HORN
2870,"Zürich, Hottingerplatz",47.3693461111111,8.55457305555556,1251,HOTT
2870,"Zürich, Hottingerplatz",47.3693461111111,8.55457305555556,1251,HOTT
2871,"Zürich, Hubertus",47.3772066666667,8.49832472222222,1252,HUBE
2871,"Zürich, Hubertus",47.3772066666667,8.49832472222222,1252,HUBE
2871,"Zürich, Hubertus",47.3772066666667,8.49832472222222,1252,HUBE
2871,"Zürich, Hubertus",47.3772066666667,8.49832472222222,1252,HUBE
2871,"Zürich, Hubertus",47.3772066666667,8.49832472222222,1252,HUBE
1598,"Zürich, Hungerbergstrasse",47.4212091666667,8.50041944444444,1259,HUNG
1598,"Zürich, Hungerbergstrasse",47.4212091666667,8.50041944444444,1259,HUNG
1598,"Zürich, Hungerbergstrasse",47.4212091666667,8.50041944444444,1259,HUNG
1598,"Zürich, Hungerbergstrasse",47.4212091666667,8.50041944444444,1259,HUNG
2336,"Dietikon, Hätschen",47.4021713888889,8.39368194444445,1265,HATS
2336,"Dietikon, Hätschen",47.4021713888889,8.39368194444445,1265,HATS
2337,"Wangen, Hätzelwisen",47.4104116666667,8.64266333333333,1266,WHAE
2722,"Zürich, Höfliweg",47.3676094444444,8.51093722222222,1272,HOEF
2722,"Zürich, Höfliweg",47.3676094444444,8.51093722222222,1272,HOEF
2723,"Dübendorf, Högler",47.3919419444444,8.61445527777778,1273,DHOG
2615,"Zürich, Höschgasse",47.3578908333333,8.55502166666667,1286,HOES
2618,"Zürich, Hügelstrasse",47.3584305555556,8.52603888888889,1288,HUEG
2618,"Zürich, Hügelstrasse",47.3584305555556,8.52603888888889,1288,HUEG
2636,"Zürich, Hürstholz",47.4167833333333,8.52275388888889,1292,HUER
2636,"Zürich, Hürstholz",47.4167833333333,8.52275388888889,1292,HUER
1362,"Zürich, Im Ebnet",47.4314447222222,8.543705,1303,IEBN
1362,"Zürich, Im Ebnet",47.4314447222222,8.543705,1303,IEBN
2807,"Zürich, Im Hagacker",47.3595288888889,8.50738583333333,1307,IHAG
2807,"Zürich, Im Hagacker",47.3595288888889,8.50738583333333,1307,IHAG
2828,"Zürich, Im Hüsli",47.3281583333333,8.51267138888889,1310,IHUS
2828,"Zürich, Im Hüsli",47.3281583333333,8.51267138888889,1310,IHUS
2832,"Zürich, Im Walder",47.3480330555556,8.57427111111111,1315,IWAL
2834,"Zürich, Im Wingert",47.4015416666667,8.50871861111111,1316,IWIN
2834,"Zürich, Im Wingert",47.4015416666667,8.50871861111111,1316,IWIN
2851,"Zürich, In der Ey",47.3695194444444,8.49104888888889,1320,IDEY
2851,"Zürich, In der Ey",47.3695194444444,8.49104888888889,1320,IDEY
2851,"Zürich, In der Ey",47.3695194444444,8.49104888888889,1320,IDEY
2851,"Zürich, In der Ey",47.3695194444444,8.49104888888889,1320,IDEY
2470,"Fällanden, Industrie",47.37575,8.64418472222222,1324,FAEI
2470,"Fällanden, Industrie",47.37575,8.64418472222222,1324,FAEI
2852,"Schlieren, Industrie Gaswerk",47.4012536111111,8.46205222222222,1327,IGAS
2852,"Schlieren, Industrie Gaswerk",47.4012536111111,8.46205222222222,1327,IGAS
1543,"Zürich, Universität Irchel",47.3962633333333,8.54390277777778,1334,IRCH
1543,"Zürich, Universität Irchel",47.3962633333333,8.54390277777778,1334,IRCH
1543,"Zürich, Universität Irchel",47.3962633333333,8.54390277777778,1334,IRCH
2548,"Itschnach, Dorf",47.3276677777778,8.60225638888889,1341,ITDO
2548,"Itschnach, Dorf",47.3276677777778,8.60225638888889,1341,ITDO
2549,"Itschnach, Fallacher",47.3288658333333,8.60565638888889,1342,ITFA
2549,"Itschnach, Fallacher",47.3288658333333,8.60565638888889,1342,ITFA
2565,"Zürich, Jugendherberge",47.3482302777778,8.52767388888889,1354,JUGI
2565,"Zürich, Jugendherberge",47.3482302777778,8.52767388888889,1354,JUGI
2565,"Zürich, Jugendherberge",47.3482302777778,8.52767388888889,1354,JUGI
2568,"Zürich, Kalchbühlweg",47.3407280555556,8.53147777777778,1356,KALB
2568,"Zürich, Kalchbühlweg",47.3407280555556,8.53147777777778,1356,KALB
1906,"Zürich, Kalkbreite",47.3741841666667,8.52065638888889,1357,KALK
1906,"Zürich, Kalkbreite",47.3741841666667,8.52065638888889,1357,KALK
1906,"Zürich, Kalkbreite",47.3741841666667,8.52065638888889,1357,KALK
1906,"Zürich, Kalkbreite",47.3741841666667,8.52065638888889,1357,KALK
1906,"Zürich, Kalkbreite",47.3741841666667,8.52065638888889,1357,KALK
2570,"Zürich, Kanonengasse",47.3785213888889,8.53005388888889,1358,KANO
2570,"Zürich, Kanonengasse",47.3785213888889,8.53005388888889,1358,KANO
2571,"Zürich, Kantonsschule",47.3727330555556,8.55035361111111,1359,KANT
2571,"Zürich, Kantonsschule",47.3727330555556,8.55035361111111,1359,KANT
2434,"Zürich, Kapfstrasse",47.3611622222222,8.57101611111111,1362,KAPF
2434,"Zürich, Kapfstrasse",47.3611622222222,8.57101611111111,1362,KAPF
2244,"Zürich, Kappeli",47.3841055555556,8.49443583333333,1364,KAPP
2244,"Zürich, Kappeli",47.3841055555556,8.49443583333333,1364,KAPP
2244,"Zürich, Kappeli",47.3841055555556,8.49443583333333,1364,KAPP
2244,"Zürich, Kappeli",47.3841055555556,8.49443583333333,1364,KAPP
2262,"Zürich, Sihlpost",47.3759925,8.53400138888889,1366,SIHP
2262,"Zürich, Sihlpost",47.3759925,8.53400138888889,1366,SIHP
2262,"Zürich, Sihlpost",47.3759925,8.53400138888889,1366,SIHP
2262,"Zürich, Sihlpost",47.3759925,8.53400138888889,1366,SIHP
2629,"Zürich, Kempfhofsteig",47.3975391666667,8.509645,1379,KEMP
2629,"Zürich, Kempfhofsteig",47.3975391666667,8.509645,1379,KEMP
2247,"Zürich, Kernstrasse",47.3746530555556,8.52438666666667,1386,KERN
2247,"Zürich, Kernstrasse",47.3746530555556,8.52438666666667,1386,KERN
2382,"Schlieren, Kesslerstrasse",47.3966786111111,8.43800055555556,1388,KESS
2382,"Schlieren, Kesslerstrasse",47.3966786111111,8.43800055555556,1388,KESS
2382,"Schlieren, Kesslerstrasse",47.3966786111111,8.43800055555556,1388,KESS
1503,"Zürich, Kienastenwies",47.3551802777778,8.60091083333333,1389,KIEN
1259,"Kilchberg ZH, Bahnhof",47.3245127777778,8.54813222222222,1391,BKIL
2396,Kindhausen AG,47.3941125,8.37603916666667,1397,KIND
2292,"Zürich, Kinkelstrasse",47.3889813888889,8.54628166666667,1399,KINK
2292,"Zürich, Kinkelstrasse",47.3889813888889,8.54628166666667,1399,KINK
832,"Kilchberg ZH, Kirche",47.3179005555556,8.54163222222222,1401,KILB
2467,"Maur, Kirche",47.3378613888889,8.67394972222222,1403,MKIR
2467,"Maur, Kirche",47.3378613888889,8.67394972222222,1403,MKIR
2845,"Zürich, Kirche Fluntern",47.3772627777778,8.55910861111111,1407,KFLU
2845,"Zürich, Kirche Fluntern",47.3772627777778,8.55910861111111,1407,KFLU
2845,"Zürich, Kirche Fluntern",47.3772627777778,8.55910861111111,1407,KFLU
2845,"Zürich, Kirche Fluntern",47.3772627777778,8.55910861111111,1407,KFLU
2845,"Zürich, Kirche Fluntern",47.3772627777778,8.55910861111111,1407,KFLU
2053,"Dübendorf, Kirche Wil",47.3894941666667,8.61809666666667,1414,KWIL
2053,"Dübendorf, Kirche Wil",47.3894941666667,8.61809666666667,1414,KWIL
2054,"Dietikon, Kirchplatz",47.4049602777778,8.40337722222222,1417,KIPL
1905,"Zürich, Klusplatz",47.3642622222222,8.56585222222222,1430,KLUS
1905,"Zürich, Klusplatz",47.3642622222222,8.56585222222222,1430,KLUS
1905,"Zürich, Klusplatz",47.3642622222222,8.56585222222222,1430,KLUS
1905,"Zürich, Klusplatz",47.3642622222222,8.56585222222222,1430,KLUS
1905,"Zürich, Klusplatz",47.3642622222222,8.56585222222222,1430,KLUS
1905,"Zürich, Klusplatz",47.3642622222222,8.56585222222222,1430,KLUS
1909,"Kilchberg ZH, Spital",47.3218563888889,8.53523194444444,1440,KSPI
2579,"Zürich, Pflegezentr. Käferberg",47.3997325,8.517545,1441,PKAE
2579,"Zürich, Pflegezentr. Käferberg",47.3997325,8.517545,1441,PKAE
2581,"Zürich, Krematorium Nordheim",47.4047319444444,8.52829861111111,1445,KNOR
2581,"Zürich, Krematorium Nordheim",47.4047319444444,8.52829861111111,1445,KNOR
2582,"Zürich, Krematorium Sihlfeld",47.3777191666667,8.50714138888889,1446,KSIH
2582,"Zürich, Krematorium Sihlfeld",47.3777191666667,8.50714138888889,1446,KSIH
2582,"Zürich, Krematorium Sihlfeld",47.3777191666667,8.50714138888889,1446,KSIH
2358,"Dübendorf, Kreuzbühl",47.3881905555556,8.62153833333333,1451,DKRE
2084,"Zürich, Kreuzplatz",47.3650569444444,8.55347694444444,1453,KREU
2084,"Zürich, Kreuzplatz",47.3650569444444,8.55347694444444,1453,KREU
2084,"Zürich, Kreuzplatz",47.3650569444444,8.55347694444444,1453,KREU
2612,"Zürich, Kreuzstrasse",47.3632502777778,8.5496,1456,KRES
2612,"Zürich, Kreuzstrasse",47.3632502777778,8.5496,1456,KRES
1407,"Kilchberg ZH, Kreuzstrasse",47.3252611111111,8.54514444444444,1457,KREK
1407,"Kilchberg ZH, Kreuzstrasse",47.3252611111111,8.54514444444444,1457,KREK
1869,"Adliswil, Krone",47.3129963888889,8.52760333333333,1462,KROA01
1869,"Adliswil, Krone",47.3129963888889,8.52760333333333,1462,KROA01
2087,"Zürich, Kronenstrasse",47.3882755555556,8.53918083333333,1468,KRON
2087,"Zürich, Kronenstrasse",47.3882755555556,8.53918083333333,1468,KRON
1305,"Zürich, Kunsthaus",47.3705019444444,8.54850638888889,1472,KUNS
1305,"Zürich, Kunsthaus",47.3705019444444,8.54850638888889,1472,KUNS
1305,"Zürich, Kunsthaus",47.3705019444444,8.54850638888889,1472,KUNS
1305,"Zürich, Kunsthaus",47.3705019444444,8.54850638888889,1472,KUNS
1305,"Zürich, Kunsthaus",47.3705019444444,8.54850638888889,1472,KUNS
1305,"Zürich, Kunsthaus",47.3705019444444,8.54850638888889,1472,KUNS
2654,"Dübendorf, Kämmaten",47.3891372222222,8.59645888888889,1478,KAMM
2654,"Dübendorf, Kämmaten",47.3891372222222,8.59645888888889,1478,KAMM
2667,"Zürich, Käshaldenstrasse",47.4300236111111,8.54087861111111,1483,KAES
2667,"Zürich, Käshaldenstrasse",47.4300236111111,8.54087861111111,1483,KAES
2670,"Küsnacht ZH, Bahnhof",47.3191261111111,8.58024361111111,1488,BKUE
2475,"Unterengstringen, Langacher",47.4123455555556,8.45273777777778,1498,LANA
2475,"Unterengstringen, Langacher",47.4123455555556,8.45273777777778,1498,LANA
2862,"Zürich, Langgrütstrasse",47.3738458333333,8.49993972222222,1503,LANG
2862,"Zürich, Langgrütstrasse",47.3738458333333,8.49993972222222,1503,LANG
2863,"Rüschlikon, Langhaldenstrasse",47.3062247222222,8.55099222222222,1505,LANH
2863,"Rüschlikon, Langhaldenstrasse",47.3062247222222,8.55099222222222,1505,LANH
2315,"Zürich, Langmauerstrasse",47.3935283333333,8.5448925,1507,LANM
2315,"Zürich, Langmauerstrasse",47.3935283333333,8.5448925,1507,LANM
2315,"Zürich, Langmauerstrasse",47.3935283333333,8.5448925,1507,LANM
2315,"Zürich, Langmauerstrasse",47.3935283333333,8.5448925,1507,LANM
2324,"Oberengstringen, Lanzrain",47.4075927777778,8.46735472222222,1516,LANZ
2324,"Oberengstringen, Lanzrain",47.4075927777778,8.46735472222222,1516,LANZ
2550,"Zürich, Laubegg",47.3587013888889,8.51607972222222,1519,LAUB
2550,"Zürich, Laubegg",47.3587013888889,8.51607972222222,1519,LAUB
2550,"Zürich, Laubegg",47.3587013888889,8.51607972222222,1519,LAUB
2550,"Zürich, Laubegg",47.3587013888889,8.51607972222222,1519,LAUB
2550,"Zürich, Laubegg",47.3587013888889,8.51607972222222,1519,LAUB
2085,"Zürich, Laubiweg",47.3950769444444,8.53624805555556,1522,LAUI
2085,"Zürich, Laubiweg",47.3950769444444,8.53624805555556,1522,LAUI
2427,"Ebmatingen, Leeacherstrasse",47.3548830555556,8.63357333333333,1527,LEEA
2427,"Ebmatingen, Leeacherstrasse",47.3548830555556,8.63357333333333,1527,LEEA
2563,"Zürich, Lehenstrasse",47.3962902777778,8.52011166666667,1528,LEHE
2563,"Zürich, Lehenstrasse",47.3962902777778,8.52011166666667,1528,LEHE
2563,"Zürich, Lehenstrasse",47.3962902777778,8.52011166666667,1528,LEHE
2594,"Zürich, Leimgrübelstrasse",47.4286202777778,8.54278472222222,1532,LEIM
2594,"Zürich, Leimgrübelstrasse",47.4286202777778,8.54278472222222,1532,LEIM
2603,"Zürich, Lerchenhalde",47.4117194444444,8.50921444444444,1539,LERC
2603,"Zürich, Lerchenhalde",47.4117194444444,8.50921444444444,1539,LERC
2603,"Zürich, Lerchenhalde",47.4117194444444,8.50921444444444,1539,LERC
2361,"Dietikon, Lerzen",47.4174180555556,8.39908361111111,1540,LERZ
2361,"Dietikon, Lerzen",47.4174180555556,8.39908361111111,1540,LERZ
1417,"Rümlang, Letten",47.4386977777778,8.53488,1542,RLET07
1417,"Rümlang, Letten",47.4386977777778,8.53488,1542,RLET07
2622,"Zürich, Lettenstrasse",47.3901191666667,8.53258305555556,1547,LETT
2622,"Zürich, Lettenstrasse",47.3901191666667,8.53258305555556,1547,LETT
2245,"Zürich, Letzigrund",47.3812969444444,8.50350472222222,1548,LETG
2245,"Zürich, Letzigrund",47.3812969444444,8.50350472222222,1548,LETG
2626,"Zürich, Letzipark West",47.3866825,8.49594361111111,1549,LPAW
2626,"Zürich, Letzipark West",47.3866825,8.49594361111111,1549,LPAW
2626,"Zürich, Letzipark West",47.3866825,8.49594361111111,1549,LPAW
2274,"Zürich, Letzistrasse",47.3908338888889,8.54537972222222,1550,LETZ
2274,"Zürich, Letzistrasse",47.3908338888889,8.54537972222222,1550,LETZ
1443,"Zürich, Leutschenbach",47.4145527777778,8.55113333333333,1552,LEUT
1443,"Zürich, Leutschenbach",47.4145527777778,8.55113333333333,1552,LEUT
2378,"Fahrweid, Limmatbrücke",47.4076594444444,8.4118925,1556,LIMB
2378,"Fahrweid, Limmatbrücke",47.4076594444444,8.4118925,1556,LIMB
2287,"Zürich, Limmatplatz",47.3844647222222,8.53126166666667,1557,LIMM
2287,"Zürich, Limmatplatz",47.3844647222222,8.53126166666667,1557,LIMM
2287,"Zürich, Limmatplatz",47.3844647222222,8.53126166666667,1557,LIMM
2287,"Zürich, Limmatplatz",47.3844647222222,8.53126166666667,1557,LIMM
2535,"Zürich, Lindenplatz",47.3878563888889,8.48554333333333,1570,LIND
2535,"Zürich, Lindenplatz",47.3878563888889,8.48554333333333,1570,LIND
2535,"Zürich, Lindenplatz",47.3878563888889,8.48554333333333,1570,LIND
2535,"Zürich, Lindenplatz",47.3878563888889,8.48554333333333,1570,LIND
2535,"Zürich, Lindenplatz",47.3878563888889,8.48554333333333,1570,LIND
2401,"Weiningen ZH, Lindenplatz",47.4195444444444,8.43373805555555,1571,WLIN
2401,"Weiningen ZH, Lindenplatz",47.4195444444444,8.43373805555555,1571,WLIN
1706,"Dübendorf, Lindenplatz",47.3984616666667,8.62012027777778,1572,DLIN
1706,"Dübendorf, Lindenplatz",47.3984616666667,8.62012027777778,1572,DLIN
1509,"Kilchberg ZH, Lindt & Sprüngli",47.3190608333333,8.55102166666667,1577,LISP
1509,"Kilchberg ZH, Lindt & Sprüngli",47.3190608333333,8.55102166666667,1577,LISP
2248,"Zürich, Lochergut",47.3755125,8.51712111111111,1579,LOCH
2248,"Zürich, Lochergut",47.3755125,8.51712111111111,1579,LOCH
2248,"Zürich, Lochergut",47.3755125,8.51712111111111,1579,LOCH
2537,"Zürich, Loogarten",47.3895052777778,8.4722375,1581,LOOG
2537,"Zürich, Loogarten",47.3895052777778,8.4722375,1581,LOOG
2449,"Ebmatingen, Looren",47.3396225,8.65122888888889,1583,MLOR
2449,"Ebmatingen, Looren",47.3396225,8.65122888888889,1583,MLOR
2449,"Ebmatingen, Looren",47.3396225,8.65122888888889,1583,MLOR
2449,"Ebmatingen, Looren",47.3396225,8.65122888888889,1583,MLOR
2450,"Zürich, Loorenstrasse",47.3597405555556,8.59376888888889,1584,LOOR
2450,"Zürich, Loorenstrasse",47.3597405555556,8.59376888888889,1584,LOOR
2450,"Zürich, Loorenstrasse",47.3597405555556,8.59376888888889,1584,LOOR
2481,"Urdorf, Luberzen",47.39381,8.42323027777778,1586,LUBE
2481,"Urdorf, Luberzen",47.39381,8.42323027777778,1586,LUBE
2482,"Zürich, Luchswiesen",47.4060294444444,8.58480833333333,1587,LUCH
2482,"Zürich, Luchswiesen",47.4060294444444,8.58480833333333,1587,LUCH
2482,"Zürich, Luchswiesen",47.4060294444444,8.58480833333333,1587,LUCH
2482,"Zürich, Luchswiesen",47.4060294444444,8.58480833333333,1587,LUCH
2482,"Zürich, Luchswiesen",47.4060294444444,8.58480833333333,1587,LUCH
2482,"Zürich, Luchswiesen",47.4060294444444,8.58480833333333,1587,LUCH
2729,"Zürich, Luegisland",47.4059322222222,8.58099027777778,1590,LUEG
2729,"Zürich, Luegisland",47.4059322222222,8.58099027777778,1590,LUEG
2729,"Zürich, Luegisland",47.4059322222222,8.58099027777778,1590,LUEG
2729,"Zürich, Luegisland",47.4059322222222,8.58099027777778,1590,LUEG
2730,"Zürich, Luggwegstrasse",47.3897825,8.49236277777778,1592,LUGG
2730,"Zürich, Luggwegstrasse",47.3897825,8.49236277777778,1592,LUGG
1523,"Zürich, Lägernstrasse",47.3958447222222,8.53209111111111,1595,LAEG
1523,"Zürich, Lägernstrasse",47.3958447222222,8.53209111111111,1595,LAEG
2256,"Zürich, Löwenplatz",47.3758088888889,8.53724194444444,1608,LOEW
2256,"Zürich, Löwenplatz",47.3758088888889,8.53724194444444,1608,LOEW
2573,"Zürich, Maienweg",47.4075644444444,8.526475,1611,MAIE
2573,"Zürich, Maienweg",47.4075644444444,8.526475,1611,MAIE
1907,"Zürich, Manegg",47.3370952777778,8.51989111111111,1612,MANG
1907,"Zürich, Manegg",47.3370952777778,8.51989111111111,1612,MANG
2576,"Zürich, Manesseplatz",47.3651288888889,8.52132,1614,MANS
2576,"Zürich, Manesseplatz",47.3651288888889,8.52132,1614,MANS
2576,"Zürich, Manesseplatz",47.3651288888889,8.52132,1614,MANS
2578,"Zürich, Marbachweg",47.330275,8.51526777777778,1615,MARB
2578,"Zürich, Marbachweg",47.330275,8.51526777777778,1615,MARB
2346,"Dietikon, Marmori-Weiher",47.3990102777778,8.39416833333333,1616,MARW
2346,"Dietikon, Marmori-Weiher",47.3990102777778,8.39416833333333,1616,MARW
2356,"Zürich, Mattenhof",47.3988011111111,8.59074694444444,1620,MATT
2356,"Zürich, Mattenhof",47.3988011111111,8.59074694444444,1620,MATT
2356,"Zürich, Mattenhof",47.3988011111111,8.59074694444444,1620,MATT
2356,"Zürich, Mattenhof",47.3988011111111,8.59074694444444,1620,MATT
2607,"Zürich, Meierhofplatz",47.4026427777778,8.49953277777778,1626,MEIE
2607,"Zürich, Meierhofplatz",47.4026427777778,8.49953277777778,1626,MEIE
2607,"Zürich, Meierhofplatz",47.4026427777778,8.49953277777778,1626,MEIE
2607,"Zürich, Meierhofplatz",47.4026427777778,8.49953277777778,1626,MEIE
2607,"Zürich, Meierhofplatz",47.4026427777778,8.49953277777778,1626,MEIE
2607,"Zürich, Meierhofplatz",47.4026427777778,8.49953277777778,1626,MEIE
1114,"Dübendorf, Meiershofstrasse",47.3966511111111,8.61310194444444,1627,MEHO
1114,"Dübendorf, Meiershofstrasse",47.3966511111111,8.61310194444444,1627,MEHO
2383,"Zürich, Micafil",47.3930391666667,8.47439888888889,1640,MICA
2383,"Zürich, Micafil",47.3930391666667,8.47439888888889,1640,MICA
2647,"Zürich, Michelstrasse",47.4064761111111,8.49544861111111,1641,MICH
2647,"Zürich, Michelstrasse",47.4064761111111,8.49544861111111,1641,MICH
1504,"Zürich, Milchbuck",47.3972883333333,8.54111555555555,1643,MIBU
1504,"Zürich, Milchbuck",47.3972883333333,8.54111555555555,1643,MIBU
1504,"Zürich, Milchbuck",47.3972883333333,8.54111555555555,1643,MIBU
1504,"Zürich, Milchbuck",47.3972883333333,8.54111555555555,1643,MIBU
1504,"Zürich, Milchbuck",47.3972883333333,8.54111555555555,1643,MIBU
1504,"Zürich, Milchbuck",47.3972883333333,8.54111555555555,1643,MIBU
1504,"Zürich, Milchbuck",47.3972883333333,8.54111555555555,1643,MIBU
1504,"Zürich, Milchbuck",47.3972883333333,8.54111555555555,1643,MIBU
2650,"Zürich, Militär-/Langstrasse",47.3796788888889,8.52749527777778,1644,MILA
2650,"Zürich, Militär-/Langstrasse",47.3796788888889,8.52749527777778,1644,MILA
2650,"Zürich, Militär-/Langstrasse",47.3796788888889,8.52749527777778,1644,MILA
2650,"Zürich, Militär-/Langstrasse",47.3796788888889,8.52749527777778,1644,MILA
1741,"Zürich, Mittelleimbach",47.3230975,8.51422333333333,1648,MITL
1748,"Rüschlikon, Moosstrasse",47.3024763888889,8.54509555555556,1657,MOOS
1748,"Rüschlikon, Moosstrasse",47.3024763888889,8.54509555555556,1657,MOOS
1511,"Zürich, Morgental",47.344065,8.52962694444444,1660,MORG
1511,"Zürich, Morgental",47.344065,8.52962694444444,1660,MORG
1511,"Zürich, Morgental",47.344065,8.52962694444444,1660,MORG
1511,"Zürich, Morgental",47.344065,8.52962694444444,1660,MORG
2413,"Zürich, Museum Rietberg",47.360895,8.53152027777778,1666,MUSR
2413,"Zürich, Museum Rietberg",47.360895,8.53152027777778,1666,MUSR
2294,"Zürich, Museum für Gestaltung",47.3823361111111,8.53474083333333,1667,MUFG
2294,"Zürich, Museum für Gestaltung",47.3823361111111,8.53474083333333,1667,MUFG
2520,"Schlieren, Mülligen",47.3956994444444,8.46757555555556,1690,MULL
2520,"Schlieren, Mülligen",47.3956994444444,8.46757555555556,1690,MULL
2007,"Schlieren, Nassacker",47.3948141666667,8.44140972222222,1694,NASS
2007,"Schlieren, Nassacker",47.3948141666667,8.44140972222222,1694,NASS
2541,"Zürich, Neeserweg",47.3908652777778,8.47405222222222,1698,NEES
2541,"Zürich, Neeserweg",47.3908652777778,8.47405222222222,1698,NEES
2429,"Zürich, Neuaffoltern",47.4121713888889,8.52439583333333,1705,NEUA
2429,"Zürich, Neuaffoltern",47.4121713888889,8.52439583333333,1705,NEUA
2429,"Zürich, Neuaffoltern",47.4121713888889,8.52439583333333,1705,NEUA
1499,"Zürich, Neubühl",47.3329616666667,8.5346925,1710,NEUB
2525,"Fällanden, Neuhus",47.3686919444444,8.64471361111111,1723,FNEU
2525,"Fällanden, Neuhus",47.3686919444444,8.64471361111111,1723,FNEU
2641,"Zürich, Neumarkt",47.3728697222222,8.54736388888889,1724,NEUM
2641,"Zürich, Neumarkt",47.3728697222222,8.54736388888889,1724,NEUM
2641,"Zürich, Neumarkt",47.3728697222222,8.54736388888889,1724,NEUM
2373,"Urdorf, Neumatt",47.3873772222222,8.42023722222222,1725,NEUT
2373,"Urdorf, Neumatt",47.3873772222222,8.42023722222222,1725,NEUT
2374,"Urdorf, Neumattstrasse",47.3872166666667,8.42219444444444,1726,NMAT
2374,"Urdorf, Neumattstrasse",47.3872166666667,8.42219444444444,1726,NMAT
2391,"Urdorf, Niederurdorf",47.3902158333333,8.4185675,1731,NURD
2391,"Urdorf, Niederurdorf",47.3902158333333,8.4185675,1731,NURD
2672,"Zürich, Nordheimstrasse",47.403425,8.53047111111111,1744,NORH
2672,"Zürich, Nordheimstrasse",47.403425,8.53047111111111,1744,NORH
2673,"Zürich, Nordstrasse",47.3885313888889,8.53594111111111,1745,NORS
2673,"Zürich, Nordstrasse",47.3885313888889,8.53594111111111,1745,NORS
2673,"Zürich, Nordstrasse",47.3885313888889,8.53594111111111,1745,NORS
2693,"Zürich, Nürenbergstrasse",47.3926741666667,8.5325425,1753,NUER
2693,"Zürich, Nürenbergstrasse",47.3926741666667,8.5325425,1753,NUER
2478,"Dietikon, Oberdorf",47.4016619444444,8.39656083333333,1758,ODIE
2478,"Dietikon, Oberdorf",47.4016619444444,8.39656083333333,1758,ODIE
2480,"Oetwil an der Limmat, Oberdorf",47.4276983333333,8.39807611111111,1759,OBDO
1809,"Rümlang, Oberdorf",47.4520180555556,8.53026083333333,1763,ORUE07
2732,"Küsnacht ZH, Obere Heslibachst",47.3167708333333,8.58555055555555,1769,OBHE
2732,"Küsnacht ZH, Obere Heslibachst",47.3167708333333,8.58555055555555,1769,OBHE
2754,"Küsnacht ZH, Oberfeld",47.3133486111111,8.58863805555556,1779,OBFE
1850,"Rümlang, Gemeindehaus",47.4496830555556,8.52986805555556,1799,RGEM07
1850,"Rümlang, Gemeindehaus",47.4496830555556,8.52986805555556,1799,RGEM07
2649,"Küsnacht ZH, Oberwacht",47.3192197222222,8.58442583333333,1818,OBWA
2649,"Küsnacht ZH, Oberwacht",47.3192197222222,8.58442583333333,1818,OBWA
2442,"Zürich, Oberwiesenstrasse",47.4105044444444,8.53235222222222,1821,OBEW
2442,"Zürich, Oberwiesenstrasse",47.4105044444444,8.53235222222222,1821,OBEW
2485,"Dietikon, Oetwilerstrasse",47.4066919444444,8.39633333333333,1843,OETW
2485,"Dietikon, Oetwilerstrasse",47.4066919444444,8.39633333333333,1843,OETW
2104,"Zürich, Opernhaus",47.3656013888889,8.54737166666667,1845,OPER
2104,"Zürich, Opernhaus",47.3656013888889,8.54737166666667,1845,OPER
2509,"Zürich, Ottikerstrasse",47.3856291666667,8.54221222222222,1856,OTTI
2509,"Zürich, Ottikerstrasse",47.3856291666667,8.54221222222222,1856,OTTI
1528,"Zürich, Paradeplatz",47.3696608333333,8.53862472222222,1861,PARA
1528,"Zürich, Paradeplatz",47.3696608333333,8.53862472222222,1861,PARA
1528,"Zürich, Paradeplatz",47.3696608333333,8.53862472222222,1861,PARA
1528,"Zürich, Paradeplatz",47.3696608333333,8.53862472222222,1861,PARA
1528,"Zürich, Paradeplatz",47.3696608333333,8.53862472222222,1861,PARA
1528,"Zürich, Paradeplatz",47.3696608333333,8.53862472222222,1861,PARA
2518,"Oberengstringen, Paradies",47.4105936111111,8.45861416666667,1862,PAEN
2518,"Oberengstringen, Paradies",47.4105936111111,8.45861416666667,1862,PAEN
2760,"Kilchberg ZH, Paradiessteig",47.3300661111111,8.54310083333333,1863,PAKI
2760,"Kilchberg ZH, Paradiessteig",47.3300661111111,8.54310083333333,1863,PAKI
2762,"Kilchberg ZH, Paradiesstrasse",47.3292008333333,8.54703888888889,1864,PARU
2762,"Kilchberg ZH, Paradiesstrasse",47.3292008333333,8.54703888888889,1864,PARU
2764,"Zürich, Hürlimannplatz",47.3651441666667,8.52639083333333,1865,HURL
2764,"Zürich, Hürlimannplatz",47.3651441666667,8.52639083333333,1865,HURL
1724,"Dietikon, Pestalozzi",47.4141572222222,8.39962111111111,1868,PEST
1724,"Dietikon, Pestalozzi",47.4141572222222,8.39962111111111,1868,PEST
2461,"Pfaffhausen, Pfaffenstein",47.3685844444444,8.62732638888889,1871,PFAF
2461,"Pfaffhausen, Pfaffenstein",47.3685844444444,8.62732638888889,1871,PFAF
2462,"Pfaffhausen, Müseren",47.362795,8.61730777777778,1873,PMUE
2462,"Pfaffhausen, Müseren",47.362795,8.61730777777778,1873,PMUE
2799,"Zürich, Platte",47.3749613888889,8.55247916666667,1889,PLAT
2799,"Zürich, Platte",47.3749613888889,8.55247916666667,1889,PLAT
2464,"Maur, Platten",47.3435994444444,8.66051722222222,1892,MPLA
2464,"Maur, Platten",47.3435994444444,8.66051722222222,1892,MPLA
2400,"Dübendorf, Post",47.3960213888889,8.61665138888889,1911,PDUB
1790,"Glattbrugg, Post",47.4304241666667,8.56117472222222,1925,PGLA07
2020,"Oetwil an der Limmat, Post",47.4278961111111,8.39483222222222,1964,OPOS
891,"Waldegg, Post",47.3680555555556,8.46276583333333,1991,WalPost
2487,"Zürich, Post Wollishofen",47.3446266666667,8.53301333333333,2005,PWOL
2487,"Zürich, Post Wollishofen",47.3446266666667,8.53301333333333,2005,PWOL
2489,"Zürich, Probstei",47.4003858333333,8.58607805555556,2008,PROB
2489,"Zürich, Probstei",47.4003858333333,8.58607805555556,2008,PROB
2489,"Zürich, Probstei",47.4003858333333,8.58607805555556,2008,PROB
2780,"Itschnach, Rebweg",47.3265844444444,8.59817111111111,2038,REBW
2795,"Zollikon, Rebwiesstrasse",47.3457272222222,8.58822444444444,2040,RWIE
2795,"Zollikon, Rebwiesstrasse",47.3457272222222,8.58822444444444,2040,RWIE
2796,"Küsnacht ZH, Reform. Kirche",47.3166069444444,8.58393333333333,2043,RKIK
2089,"Zürich, Regensbergbrücke",47.4091727777778,8.53902944444445,2045,REGB
2089,"Zürich, Regensbergbrücke",47.4091727777778,8.53902944444445,2045,REGB
2089,"Zürich, Regensbergbrücke",47.4091727777778,8.53902944444445,2045,REGB
2089,"Zürich, Regensbergbrücke",47.4091727777778,8.53902944444445,2045,REGB
2033,"Schlieren, Reitmen",47.3971555555556,8.43276361111111,2051,REIT
2033,"Schlieren, Reitmen",47.3971555555556,8.43276361111111,2051,REIT
2035,"Zürich, Rennweg",47.3729202777778,8.53829472222222,2054,RAUG
2035,"Zürich, Rennweg",47.3729202777778,8.53829472222222,2054,RAUG
2814,"Zürich, Rentenanstalt",47.3634475,8.53460416666667,2055,RENT
2814,"Zürich, Rentenanstalt",47.3634475,8.53460416666667,2055,RENT
2814,"Zürich, Rentenanstalt",47.3634475,8.53460416666667,2055,RENT
2814,"Zürich, Rentenanstalt",47.3634475,8.53460416666667,2055,RENT
2468,"Zürich, Riedgraben",47.4107491666667,8.55844805555556,2069,RIEG
2468,"Zürich, Riedgraben",47.4107491666667,8.55844805555556,2069,RIEG
2061,"Bergdietikon, Rietwies",47.3933461111111,8.39057,2085,RIEW
2061,"Bergdietikon, Rietwies",47.3933461111111,8.39057,2085,RIEW
2749,"Zürich, Rosengartenstrasse",47.3943627777778,8.52519888888889,2104,ROSE
2749,"Zürich, Rosengartenstrasse",47.3943627777778,8.52519888888889,2104,ROSE
2749,"Zürich, Rosengartenstrasse",47.3943627777778,8.52519888888889,2104,ROSE
2749,"Zürich, Rosengartenstrasse",47.3943627777778,8.52519888888889,2104,ROSE
2510,"Zürich, Roswiesen",47.4030322222222,8.57678138888889,2107,ROSW
2510,"Zürich, Roswiesen",47.4030322222222,8.57678138888889,2107,ROSW
2510,"Zürich, Roswiesen",47.4030322222222,8.57678138888889,2107,ROSW
2510,"Zürich, Roswiesen",47.4030322222222,8.57678138888889,2107,ROSW
2752,"Zürich, Rotbuchstrasse",47.3913858333333,8.53562888888889,2108,ROTB
2752,"Zürich, Rotbuchstrasse",47.3913858333333,8.53562888888889,2108,ROTB
2752,"Zürich, Rotbuchstrasse",47.3913858333333,8.53562888888889,2108,ROTB
2752,"Zürich, Rotbuchstrasse",47.3913858333333,8.53562888888889,2108,ROTB
2511,"Zürich, Rote Fabrik",47.3429347222222,8.53594305555556,2109,ROTE
2511,"Zürich, Rote Fabrik",47.3429347222222,8.53594305555556,2109,ROTE
2768,"Zürich, Rudolf-Brun-Brücke",47.3737313888889,8.54286638888889,2113,RBRU
2768,"Zürich, Rudolf-Brun-Brücke",47.3737313888889,8.54286638888889,2113,RBRU
2783,"Zürich, Räffelstrasse",47.3631327777778,8.51450111111111,2120,RAEF
2783,"Zürich, Räffelstrasse",47.3631327777778,8.51450111111111,2120,RAEF
2785,"Küsnacht ZH, Ränkestrasse",47.3144686111111,8.59540805555556,2122,RAEN
1531,"Zürich, Römerhof",47.3676641666667,8.56011194444444,2124,ROEM
1531,"Zürich, Römerhof",47.3676641666667,8.56011194444444,2124,ROEM
1531,"Zürich, Römerhof",47.3676641666667,8.56011194444444,2124,ROEM
1531,"Zürich, Römerhof",47.3676641666667,8.56011194444444,2124,ROEM
1531,"Zürich, Römerhof",47.3676641666667,8.56011194444444,2124,ROEM
2787,"Zürich, Röntgenstrasse",47.3820636111111,8.52931861111111,2127,ROEN
2787,"Zürich, Röntgenstrasse",47.3820636111111,8.52931861111111,2127,ROEN
2022,"Zürich, Röslistrasse",47.3888125,8.54041055555555,2128,ROES
2022,"Zürich, Röslistrasse",47.3888125,8.54041055555555,2128,ROES
2821,"Zürich, Rütihof",47.4137011111111,8.47734472222222,2140,RUET
2822,"Schlieren, Rütistrasse",47.4008069444444,8.45353833333333,2141,RUST
2822,"Schlieren, Rütistrasse",47.4008069444444,8.45353833333333,2141,RUST
2824,"Zürich, SBB-Werkstätte",47.3870047222222,8.50198972222222,2142,SBBW
2824,"Zürich, SBB-Werkstätte",47.3870047222222,8.50198972222222,2142,SBBW
2465,"Zürich, Saatlenstrasse",47.4109241666667,8.56267861111111,2145,SAAT
2465,"Zürich, Saatlenstrasse",47.4109241666667,8.56267861111111,2145,SAAT
2829,"Zürich, Sackzelg",47.3746194444444,8.49502916666667,2147,SACK
2829,"Zürich, Sackzelg",47.3746194444444,8.49502916666667,2147,SACK
2829,"Zürich, Sackzelg",47.3746194444444,8.49502916666667,2147,SACK
2313,"Zürich, Salersteig",47.4063944444444,8.5483,2151,SALE
2313,"Zürich, Salersteig",47.4063944444444,8.5483,2151,SALE
2546,"Zürich, Salzweg",47.3880208333333,8.47126833333333,2152,SALZ
2546,"Zürich, Salzweg",47.3880208333333,8.47126833333333,2152,SALZ
2850,"Kilchberg ZH, Sanatorium",47.3269494444444,8.54447833333333,2154,SANK
2850,"Kilchberg ZH, Sanatorium",47.3269494444444,8.54447833333333,2154,SANK
1539,"Zürich, Schaffhauserplatz",47.3913802777778,8.5380925,2158,SPLA
1539,"Zürich, Schaffhauserplatz",47.3913802777778,8.5380925,2158,SPLA
1539,"Zürich, Schaffhauserplatz",47.3913802777778,8.5380925,2158,SPLA
1539,"Zürich, Schaffhauserplatz",47.3913802777778,8.5380925,2158,SPLA
1539,"Zürich, Schaffhauserplatz",47.3913802777778,8.5380925,2158,SPLA
1539,"Zürich, Schaffhauserplatz",47.3913802777778,8.5380925,2158,SPLA
1010,"Zürich, Schaufelbergerstrasse",47.3693791666667,8.50146611111111,2160,SCHA
1010,"Zürich, Schaufelbergerstrasse",47.3693791666667,8.50146611111111,2160,SCHA
1010,"Zürich, Schaufelbergerstrasse",47.3693791666667,8.50146611111111,2160,SCHA
1010,"Zürich, Schaufelbergerstrasse",47.3693791666667,8.50146611111111,2160,SCHA
1010,"Zürich, Schaufelbergerstrasse",47.3693791666667,8.50146611111111,2160,SCHA
2861,"Zürich, Scheuchzerstrasse",47.3880622222222,8.54362694444444,2164,SCHZ
2861,"Zürich, Scheuchzerstrasse",47.3880622222222,8.54362694444444,2164,SCHZ
2120,"Scheuren, Station",47.32247,8.65958388888889,2166,SCHE
2120,"Scheuren, Station",47.32247,8.65958388888889,2166,SCHE
2864,"Küsnacht ZH, Schiedhaldensteig",47.3216458333333,8.58650194444444,2167,SIHG
2864,"Küsnacht ZH, Schiedhaldensteig",47.3216458333333,8.58650194444444,2167,SIHG
2865,"Küsnacht ZH, Schiedhaldenstr.",47.3233861111111,8.58245166666667,2168,SIHE
2865,"Küsnacht ZH, Schiedhaldenstr.",47.3233861111111,8.58245166666667,2168,SIHE
2865,"Küsnacht ZH, Schiedhaldenstr.",47.3233861111111,8.58245166666667,2168,SIHE
2865,"Küsnacht ZH, Schiedhaldenstr.",47.3233861111111,8.58245166666667,2168,SIHE
2043,"Schlieren, Zentrum/Bahnhof",47.3980672222222,8.44694194444445,2236,SCHL
2043,"Schlieren, Zentrum/Bahnhof",47.3980672222222,8.44694194444445,2236,SCHL
2043,"Schlieren, Zentrum/Bahnhof",47.3980672222222,8.44694194444445,2236,SCHL
2043,"Schlieren, Zentrum/Bahnhof",47.3980672222222,8.44694194444445,2236,SCHL
1537,"Schlieren, Zentrum",47.3973272222222,8.44721944444444,2237,SZEN
1537,"Schlieren, Zentrum",47.3973272222222,8.44721944444444,2237,SZEN
2044,"Urdorf, Schlierenstrasse",47.3911830555556,8.4232875,2238,SCHS
2044,"Urdorf, Schlierenstrasse",47.3911830555556,8.4232875,2238,SCHS
1538,"Kilchberg ZH, Schlimbergstr.",47.3246702777778,8.54294944444444,2239,SLIM
2473,"Zürich, Schlyfi",47.3622913888889,8.57419083333333,2251,SYFI
2473,"Zürich, Schlyfi",47.3622913888889,8.57419083333333,2251,SYFI
2060,"Zürich, Schmiede Wiedikon",47.3697855555556,8.51875305555556,2256,SWIE
2060,"Zürich, Schmiede Wiedikon",47.3697855555556,8.51875305555556,2256,SWIE
2060,"Zürich, Schmiede Wiedikon",47.3697855555556,8.51875305555556,2256,SWIE
2060,"Zürich, Schmiede Wiedikon",47.3697855555556,8.51875305555556,2256,SWIE
2060,"Zürich, Schmiede Wiedikon",47.3697855555556,8.51875305555556,2256,SWIE
2552,"Kilchberg ZH, Schooren",47.3178522222222,8.55321861111111,2262,SORU
2552,"Kilchberg ZH, Schooren",47.3178522222222,8.55321861111111,2262,SORU
1904,"Kilchberg ZH, Schoorenstrasse",47.3173138888889,8.54933166666667,2264,SOKI
1904,"Kilchberg ZH, Schoorenstrasse",47.3173138888889,8.54933166666667,2264,SOKI
2333,"Weiningen ZH, Schulhaus",47.4185480555556,8.4282725,2268,SWEI
2333,"Weiningen ZH, Schulhaus",47.4185480555556,8.4282725,2268,SWEI
2531,"Zürich, Schulhaus Buchlern",47.3844408333333,8.47727805555555,2276,BUCL
2531,"Zürich, Schulhaus Buchlern",47.3844408333333,8.47727805555555,2276,BUCL
2531,"Zürich, Schulhaus Buchlern",47.3844408333333,8.47727805555555,2276,BUCL
2531,"Zürich, Schulhaus Buchlern",47.3844408333333,8.47727805555555,2276,BUCL
1405,"Kilchberg ZH,Schulhaus Dorfstr",47.3219908333333,8.54752416666667,2277,SHDO
1405,"Kilchberg ZH,Schulhaus Dorfstr",47.3219908333333,8.54752416666667,2277,SHDO
2608,"Zürich, Schumacherweg",47.4120975,8.51401888888889,2289,SWEG
2608,"Zürich, Schumacherweg",47.4120975,8.51401888888889,2289,SWEG
1501,"Zürich, Schwamendingerplatz",47.4047494444444,8.57138583333333,2294,SCHW
1501,"Zürich, Schwamendingerplatz",47.4047494444444,8.57138583333333,2294,SCHW
1501,"Zürich, Schwamendingerplatz",47.4047494444444,8.57138583333333,2294,SCHW
1501,"Zürich, Schwamendingerplatz",47.4047494444444,8.57138583333333,2294,SCHW
1501,"Zürich, Schwamendingerplatz",47.4047494444444,8.57138583333333,2294,SCHW
2634,"Zürich, Schwandenholz",47.4238475,8.52051194444445,2298,SHOL
2634,"Zürich, Schwandenholz",47.4238475,8.52051194444445,2298,SHOL
2802,"Zürich, Schweighof",47.3647980555556,8.50272527777778,2302,SHOF
2802,"Zürich, Schweighof",47.3647980555556,8.50272527777778,2302,SHOF
2029,"Geroldswil, Schweizäcker",47.4229602777778,8.40428611111111,2303,SWAK
2029,"Geroldswil, Schweizäcker",47.4229602777778,8.40428611111111,2303,SWAK
1533,"Kilchberg ZH, Schwelle",47.3224094444444,8.54515166666667,2304,KSCH
1533,"Kilchberg ZH, Schwelle",47.3224094444444,8.54515166666667,2304,KSCH
1533,"Kilchberg ZH, Schwelle",47.3224094444444,8.54515166666667,2304,KSCH
1533,"Kilchberg ZH, Schwelle",47.3224094444444,8.54515166666667,2304,KSCH
2804,"Zürich, Schwert",47.3998158333333,8.50469611111111,2306,SCHT
2804,"Zürich, Schwert",47.3998158333333,8.50469611111111,2306,SCHT
1679,"Schwerzenbach ZH, Bahnhof",47.3841819444444,8.65927527777778,2307,BSCH
2038,"Dietikon, Schäflibach",47.4003672222222,8.41050083333333,2313,SBAC
2038,"Dietikon, Schäflibach",47.4003672222222,8.41050083333333,2313,SBAC
2843,"Zürich, Schönauring",47.4257394444444,8.53642916666667,2320,SCHG
2843,"Zürich, Schönauring",47.4257394444444,8.53642916666667,2320,SCHG
2046,"Zürich, Schörlistrasse",47.4060627777778,8.56402027777778,2326,SCHO
2046,"Zürich, Schörlistrasse",47.4060627777778,8.56402027777778,2326,SCHO
2848,"Küsnacht ZH, Schübel",47.3221530555556,8.58976722222222,2327,SUEB
2848,"Küsnacht ZH, Schübel",47.3221530555556,8.58976722222222,2327,SUEB
1393,"Zürich, Schürgistrasse",47.4089191666667,8.57910666666667,2329,SURG
1393,"Zürich, Schürgistrasse",47.4089191666667,8.57910666666667,2329,SURG
2471,"Fällanden, Schützenhaus",47.368695,8.63230722222222,2335,SHUA
2471,"Fällanden, Schützenhaus",47.368695,8.63230722222222,2335,SHUA
2872,"Zollikon, Schützenstrasse",47.3449425,8.58573277777778,2341,SUET
2872,"Zollikon, Schützenstrasse",47.3449425,8.58573277777778,2341,SUET
2474,"Maur, See",47.3399955555556,8.67878972222222,2342,MSEE
1596,"Zürich, Seebach",47.4212255555556,8.54943055555556,2346,SEEB
1596,"Zürich, Seebach",47.4212255555556,8.54943055555556,2346,SEEB
1596,"Zürich, Seebach",47.4212255555556,8.54943055555556,2346,SEEB
1596,"Zürich, Seebach",47.4212255555556,8.54943055555556,2346,SEEB
1596,"Zürich, Seebach",47.4212255555556,8.54943055555556,2346,SEEB
2585,"Zollikon, Seestrasse",47.3424255555556,8.56728333333333,2363,SEES
2587,"Zürich, Segantinistrasse",47.4078972222222,8.48951444444444,2364,SEGA
2587,"Zürich, Segantinistrasse",47.4078972222222,8.48951444444444,2364,SEGA
2591,"Zürich, Seidelhof",47.3919033333333,8.48366222222222,2366,SEID
2591,"Zürich, Seidelhof",47.3919033333333,8.48366222222222,2366,SEID
2260,"Zürich, Seilbahn Rigiblick",47.3860566666667,8.54830027777778,2367,RIGI
2260,"Zürich, Seilbahn Rigiblick",47.3860566666667,8.54830027777778,2367,RIGI
2370,"Spreitenbach, Shopping Center",47.4204402777778,8.36825916666667,2384,SCEN
2370,"Spreitenbach, Shopping Center",47.4204402777778,8.36825916666667,2384,SCEN
2640,"Zürich, Siemens",47.37837,8.49408388888889,2385,SIEM
2640,"Zürich, Siemens",47.37837,8.49408388888889,2385,SIEM
2275,"Zürich, Signaustrasse",47.3632908333333,8.55751777777778,2388,SIGN
2275,"Zürich, Signaustrasse",47.3632908333333,8.55751777777778,2388,SIGN
2289,"Zürich, Sihlquai/HB",47.3797552777778,8.53748222222222,2395,SIHL
2289,"Zürich, Sihlquai/HB",47.3797552777778,8.53748222222222,2395,SIHL
2657,"Zürich, Sihlstrasse",47.372425,8.53457694444444,2396,SIHS
2657,"Zürich, Sihlstrasse",47.372425,8.53457694444444,2396,SIHS
2657,"Zürich, Sihlstrasse",47.372425,8.53457694444444,2396,SIHS
2658,"Zürich, Sihlweidstrasse",47.3265691666667,8.51428,2398,SIHW
2658,"Zürich, Sihlweidstrasse",47.3265691666667,8.51428,2398,SIHW
2394,"Dietikon, Moosmatt",47.4194577777778,8.39388555555556,2399,DMOO
2394,"Dietikon, Moosmatt",47.4194577777778,8.39388555555556,2399,DMOO
2831,"Zürich, Singlistrasse",47.4056038888889,8.49243694444444,2402,SING
2831,"Zürich, Singlistrasse",47.4056038888889,8.49243694444444,2402,SING
2042,"Dietikon, Sommerau",47.4027302777778,8.40545638888889,2406,SOME
2042,"Dietikon, Sommerau",47.4027302777778,8.40545638888889,2406,SOME
2047,"Zürich, Sonneggstrasse",47.3831441666667,8.54337916666667,2411,SONN
2047,"Zürich, Sonneggstrasse",47.3831441666667,8.54337916666667,2411,SONN
1475,"Dübendorf, Breitibach",47.3957852777778,8.60623388888889,2422,DBRE
1475,"Dübendorf, Breitibach",47.3957852777778,8.60623388888889,2422,DBRE
2328,"Schlieren, Spital Limmattal",47.3927372222222,8.42880027777778,2436,SPLI
2328,"Schlieren, Spital Limmattal",47.3927372222222,8.42880027777778,2436,SPLI
2328,"Schlieren, Spital Limmattal",47.3927372222222,8.42880027777778,2436,SPLI
2341,"Urdorf, Spitzacker",47.3842708333333,8.42166333333333,2440,SPIT
2341,"Urdorf, Spitzacker",47.3842708333333,8.42166333333333,2440,SPIT
2572,"Zürich, Hardturm",47.3942361111111,8.504015,2447,SPOH
2572,"Zürich, Hardturm",47.3942361111111,8.504015,2447,SPOH
2575,"Zürich, Sportweg",47.3916938888889,8.50558027777778,2449,SPOW
2575,"Zürich, Sportweg",47.3916938888889,8.50558027777778,2449,SPOW
2598,"Zürich, Sprecherstrasse",47.3678794444444,8.55182805555556,2450,SPRE
2598,"Zürich, Sprecherstrasse",47.3678794444444,8.55182805555556,2450,SPRE
2600,"Zürich, Spyriplatz",47.3821436111111,8.55203305555556,2451,SPYR
2600,"Zürich, Spyriplatz",47.3821436111111,8.55203305555556,2451,SPYR
2625,"Zürich, Stadtgrenze",47.3352741666667,8.54125027777778,2461,STAD
2625,"Zürich, Stadtgrenze",47.3352741666667,8.54125027777778,2461,STAD
2379,"Dietikon, Staffelackerstrasse",47.40179,8.39086638888889,2471,STAF
2379,"Dietikon, Staffelackerstrasse",47.40179,8.39086638888889,2471,STAF
2088,"Zürich, Stampfenbachplatz",47.37995,8.54253166666667,2474,STAM
2088,"Zürich, Stampfenbachplatz",47.37995,8.54253166666667,2474,STAM
2088,"Zürich, Stampfenbachplatz",47.37995,8.54253166666667,2474,STAM
1500,"Zürich, Bahnhof Leimbach",47.3331244444444,8.51838166666667,2547,BLEI
1500,"Zürich, Bahnhof Leimbach",47.3331244444444,8.51838166666667,2547,BLEI
2092,"Zürich, Rehalp",47.3509222222222,8.58301944444444,2549,REHA
1854,"Zürich, Saalsporthalle",47.3579422222222,8.52030027777778,2550,SAAL
1854,"Zürich, Saalsporthalle",47.3579422222222,8.52030027777778,2550,SAAL
2524,"Zürich, Bahnhof Selnau",47.3709072222222,8.53146055555556,2551,BSEL
2524,"Zürich, Bahnhof Selnau",47.3709072222222,8.53146055555556,2551,BSEL
1502,"Zürich, Stauffacher",47.3733105555556,8.52845111111111,2556,STAU
1502,"Zürich, Stauffacher",47.3733105555556,8.52845111111111,2556,STAU
1502,"Zürich, Stauffacher",47.3733105555556,8.52845111111111,2556,STAU
1502,"Zürich, Stauffacher",47.3733105555556,8.52845111111111,2556,STAU
1502,"Zürich, Stauffacher",47.3733105555556,8.52845111111111,2556,STAU
1502,"Zürich, Stauffacher",47.3733105555556,8.52845111111111,2556,STAU
1502,"Zürich, Stauffacher",47.3733105555556,8.52845111111111,2556,STAU
2392,"Dietikon, Stelzenacker",47.4045569444444,8.39126027777778,2569,STEA
2392,"Dietikon, Stelzenacker",47.4045569444444,8.39126027777778,2569,STEA
2392,"Dietikon, Stelzenacker",47.4045569444444,8.39126027777778,2569,STEA
2392,"Dietikon, Stelzenacker",47.4045569444444,8.39126027777778,2569,STEA
143,"Birmensdorf ZH, Sternen/WSL",47.3601530555556,8.45618027777778,2570,BirmSte
1311,"Zürich, Sternen Oerlikon",47.4102125,8.54599416666667,2572,SOER
1311,"Zürich, Sternen Oerlikon",47.4102125,8.54599416666667,2572,SOER
1311,"Zürich, Sternen Oerlikon",47.4102125,8.54599416666667,2572,SOER
1311,"Zürich, Sternen Oerlikon",47.4102125,8.54599416666667,2572,SOER
1311,"Zürich, Sternen Oerlikon",47.4102125,8.54599416666667,2572,SOER
1311,"Zürich, Sternen Oerlikon",47.4102125,8.54599416666667,2572,SOER
2316,"Zürich, Bahnhof Stettbach",47.3968580555556,8.59526194444445,2575,BSTE
2316,"Zürich, Bahnhof Stettbach",47.3968580555556,8.59526194444445,2575,BSTE
2316,"Zürich, Bahnhof Stettbach",47.3968580555556,8.59526194444445,2575,BSTE
2316,"Zürich, Bahnhof Stettbach",47.3968580555556,8.59526194444445,2575,BSTE
2316,"Zürich, Bahnhof Stettbach",47.3968580555556,8.59526194444445,2575,BSTE
2316,"Zürich, Bahnhof Stettbach",47.3968580555556,8.59526194444445,2575,BSTE
1518,"Kilchberg ZH, Stockengut",47.3241641666667,8.54038583333333,2580,STOG
2414,"Zürich, Stockerstrasse",47.3677533333333,8.53489138888889,2582,STOC
2414,"Zürich, Stockerstrasse",47.3677533333333,8.53489138888889,2582,STOC
2414,"Zürich, Stockerstrasse",47.3677533333333,8.53489138888889,2582,STOC
2714,"Zürich, Strassenverkehrsamt",47.3531080555556,8.5110825,2596,STRV
2714,"Zürich, Strassenverkehrsamt",47.3531080555556,8.5110825,2596,STRV
2714,"Zürich, Strassenverkehrsamt",47.3531080555556,8.5110825,2596,STRV
2714,"Zürich, Strassenverkehrsamt",47.3531080555556,8.5110825,2596,STRV
2714,"Zürich, Strassenverkehrsamt",47.3531080555556,8.5110825,2596,STRV
2137,"Zürich, Sunnau",47.3271102777778,8.52946555555556,2612,SUNN
2137,"Zürich, Sunnau",47.3271102777778,8.52946555555556,2612,SUNN
2567,"Zürich, Susenbergstrasse",47.3785202777778,8.56763694444444,2618,SUSE
2567,"Zürich, Susenbergstrasse",47.3785202777778,8.56763694444444,2618,SUSE
2432,"Pfaffhausen, Sängglen",47.3667677777778,8.62466444444444,2622,SAGG
2432,"Pfaffhausen, Sängglen",47.3667677777778,8.62466444444444,2622,SAGG
2362,"Schlieren, Talacker-Windegg",47.4055261111111,8.4477325,2631,TAWI
2362,"Schlieren, Talacker-Windegg",47.4055261111111,8.4477325,2631,TAWI
2627,"Zürich, Talwiesenstrasse",47.3697747222222,8.50928583333333,2638,TALW
2627,"Zürich, Talwiesenstrasse",47.3697747222222,8.50928583333333,2638,TALW
2665,"Zürich, Thujastrasse",47.3501097222222,8.52772555555556,2659,THUJ
2665,"Zürich, Thujastrasse",47.3501097222222,8.52772555555556,2659,THUJ
2141,"Adliswil, Tiefacker",47.3167627777778,8.52979666666667,2660,TIAK01
2141,"Adliswil, Tiefacker",47.3167627777778,8.52979666666667,2660,TIAK01
2406,"Zürich, Tierspital",47.4015047222222,8.550755,2666,TIER
2406,"Zürich, Tierspital",47.4015047222222,8.550755,2666,TIER
2406,"Zürich, Tierspital",47.4015047222222,8.550755,2666,TIER
2406,"Zürich, Tierspital",47.4015047222222,8.550755,2666,TIER
2406,"Zürich, Tierspital",47.4015047222222,8.550755,2666,TIER
2406,"Zürich, Tierspital",47.4015047222222,8.550755,2666,TIER
2698,"Zürich, Tobelhof",47.3834575,8.58690583333333,2671,TOBE
2698,"Zürich, Tobelhof",47.3834575,8.58690583333333,2671,TOBE
2701,"Zürich, Toblerplatz",47.3792416666667,8.55913694444444,2673,TOBL
2701,"Zürich, Toblerplatz",47.3792416666667,8.55913694444444,2673,TOBL
2701,"Zürich, Toblerplatz",47.3792416666667,8.55913694444444,2673,TOBL
1270,"Zürich, Triemli",47.367745,8.49525055555556,2680,TRIE
1270,"Zürich, Triemli",47.367745,8.49525055555556,2680,TRIE
1270,"Zürich, Triemli",47.367745,8.49525055555556,2680,TRIE
1270,"Zürich, Triemli",47.367745,8.49525055555556,2680,TRIE
1270,"Zürich, Triemli",47.367745,8.49525055555556,2680,TRIE
1773,"Zürich, Triemlispital",47.3663547222222,8.49678527777778,2682,TRIS
2456,"Zürich, Tulpenstrasse",47.4061094444444,8.56844666666667,2688,TULP
2508,"Zürich, Tunnelstrasse",47.3661919444444,8.53262166666667,2689,TUNN
2508,"Zürich, Tunnelstrasse",47.3661919444444,8.53262166666667,2689,TUNN
2755,"Itschnach, Tägermoos",47.3260425,8.5939125,2695,TAEG
2755,"Itschnach, Tägermoos",47.3260425,8.5939125,2695,TAEG
2580,"Zürich, Tüffenwies",47.3975447222222,8.49438416666667,2707,TUEF
2580,"Zürich, Tüffenwies",47.3975447222222,8.49438416666667,2707,TUEF
2580,"Zürich, Tüffenwies",47.3975447222222,8.49438416666667,2707,TUEF
2580,"Zürich, Tüffenwies",47.3975447222222,8.49438416666667,2707,TUEF
2633,"Zürich, Uetlihof",47.3565716666667,8.51390555555555,2722,UETL
2633,"Zürich, Uetlihof",47.3565716666667,8.51390555555555,2722,UETL
2386,"Urdorf, Uitikonerstrasse",47.3821758333333,8.42577,2732,UITI
2386,"Urdorf, Uitikonerstrasse",47.3821758333333,8.42577,2732,UITI
2439,"Zürich, Unteraffoltern",47.4240947222222,8.51135833333333,2737,UAFF
2439,"Zürich, Unteraffoltern",47.4240947222222,8.51135833333333,2737,UAFF
2439,"Zürich, Unteraffoltern",47.4240947222222,8.51135833333333,2737,UAFF
1517,"Unterengstringen, Sennenbüel N",47.4135266666667,8.449315,2751,USNO
2687,"Zürich, Untermoosstrasse",47.3792419444444,8.48324194444444,2754,UNTM
2687,"Zürich, Untermoosstrasse",47.3792419444444,8.48324194444444,2754,UNTM
751,"Glattbrugg, Unterriet",47.43792,8.56251916666667,2758,UNTR07
751,"Glattbrugg, Unterriet",47.43792,8.56251916666667,2758,UNTR07
1522,"Urdorf Weihermatt, Bahnhof",47.3800802777778,8.42996888888889,2767,BWEI
2183,"Zürich, Sihlcity Nord",47.3597102777778,8.52266611111111,2771,SIHN
2183,"Zürich, Sihlcity Nord",47.3597102777778,8.52266611111111,2771,SIHN
2183,"Zürich, Sihlcity Nord",47.3597102777778,8.52266611111111,2771,SIHN
2183,"Zürich, Sihlcity Nord",47.3597102777778,8.52266611111111,2771,SIHN
2745,"Zürich, Verenastrasse",47.3409858333333,8.52513083333333,2776,VERE
2745,"Zürich, Verenastrasse",47.3409858333333,8.52513083333333,2776,VERE
2748,"Zürich, Vogelsangstrasse",47.3835380555556,8.54922805555556,2779,VOGE
2748,"Zürich, Vogelsangstrasse",47.3835380555556,8.54922805555556,2779,VOGE
2766,"Zürich, Voltastrasse",47.3770263888889,8.55380666666667,2788,VOLT
2766,"Zürich, Voltastrasse",47.3770263888889,8.55380666666667,2788,VOLT
2009,"Bergdietikon, Vorbühl",47.3897763888889,8.38495638888889,2789,VORB
2009,"Bergdietikon, Vorbühl",47.3897763888889,8.38495638888889,2789,VORB
2781,"Zürich, Waffenplatzstrasse",47.3609661111111,8.52495555555556,2795,WAFF
2781,"Zürich, Waffenplatzstrasse",47.3609661111111,8.52495555555556,2795,WAFF
2781,"Zürich, Waffenplatzstrasse",47.3609661111111,8.52495555555556,2795,WAFF
2019,"Schlieren, Wagonsfabrik",47.3985802777778,8.45410555555556,2798,WAGO
2019,"Schlieren, Wagonsfabrik",47.3985802777778,8.45410555555556,2798,WAGO
2375,"Zürich, Waldgarten",47.4035641666667,8.55731666666667,2814,WALD
2375,"Zürich, Waldgarten",47.4035641666667,8.55731666666667,2814,WALD
2375,"Zürich, Waldgarten",47.4035641666667,8.55731666666667,2814,WALD
2375,"Zürich, Waldgarten",47.4035641666667,8.55731666666667,2814,WALD
1687,"Wallisellen, Bahnhof",47.4126486111111,8.59217277777778,2820,BWAL07
1687,"Wallisellen, Bahnhof",47.4126486111111,8.59217277777778,2820,BWAL07
1687,"Wallisellen, Bahnhof",47.4126486111111,8.59217277777778,2820,BWAL07
2096,"Zumikon, Waltikon",47.3360897222222,8.61798805555556,2826,WALT
2096,"Zumikon, Waltikon",47.3360897222222,8.61798805555556,2826,WALT
2671,"Zürich, Wartau",47.4027316666667,8.49177083333333,2831,WART
2671,"Zürich, Wartau",47.4027316666667,8.49177083333333,2831,WART
2674,"Zürich, Seerose",47.3394525,8.53793583333333,2834,SEER
2674,"Zürich, Seerose",47.3394525,8.53793583333333,2834,SEER
2444,"Zürich, Waserstrasse",47.3584666666667,8.58348194444445,2836,WASE
2772,"Zürich, Werdhölzli",47.397855,8.48200388888889,2872,WERD
2772,"Zürich, Werdhölzli",47.397855,8.48200388888889,2872,WERD
2772,"Zürich, Werdhölzli",47.397855,8.48200388888889,2872,WERD
2110,"Zürich, Wetlistrasse",47.3602183333333,8.56818944444444,2879,WETL
2110,"Zürich, Wetlistrasse",47.3602183333333,8.56818944444444,2879,WETL
2146,"Zürich, Widmerstrasse",47.3369275,8.53292166666667,2889,WIDM
2146,"Zürich, Widmerstrasse",47.3369275,8.53292166666667,2889,WIDM
2808,"Zürich, Wieslergasse",47.4041805555556,8.49564166666667,2899,WIES
2808,"Zürich, Wieslergasse",47.4041805555556,8.49564166666667,2899,WIES
2808,"Zürich, Wieslergasse",47.4041805555556,8.49564166666667,2899,WIES
2651,"Zürich, Wildbachstrasse",47.3533755555556,8.55869944444444,2907,WILD
2651,"Zürich, Wildbachstrasse",47.3533755555556,8.55869944444444,2907,WILD
2293,"Zürich, Winkelriedstrasse",47.3829994444444,8.54817055555556,2924,WINK
2293,"Zürich, Winkelriedstrasse",47.3829994444444,8.54817055555556,2924,WINK
2145,"Zürich, Wollishofen",47.3382138888889,8.53007638888889,2950,WOLL
2145,"Zürich, Wollishofen",47.3382138888889,8.53007638888889,2950,WOLL
2145,"Zürich, Wollishofen",47.3382138888889,8.53007638888889,2950,WOLL
2145,"Zürich, Wollishofen",47.3382138888889,8.53007638888889,2950,WOLL
2765,"Zürich, Wonnebergstrasse",47.3519344444444,8.56628,2956,WONE
2765,"Zürich, Wonnebergstrasse",47.3519344444444,8.56628,2956,WONE
1845,"Zürich, Zehntenhausplatz",47.4195338888889,8.50555444444444,2968,ZEHN
1845,"Zürich, Zehntenhausplatz",47.4195338888889,8.50555444444444,2968,ZEHN
1845,"Zürich, Zehntenhausplatz",47.4195338888889,8.50555444444444,2968,ZEHN
1845,"Zürich, Zehntenhausplatz",47.4195338888889,8.50555444444444,2968,ZEHN
2027,"Dübendorf, Zelglistrasse",47.3931911111111,8.61722472222222,2975,ZELG
2034,"Geroldswil, Zentrum",47.4217844444444,8.40936722222222,2982,ZENT
2034,"Geroldswil, Zentrum",47.4217844444444,8.40936722222222,2982,ZENT
2034,"Geroldswil, Zentrum",47.4217844444444,8.40936722222222,2982,ZENT
1366,Zentrum Glatt,47.4090677777778,8.59583194444444,2983,ZGLA
2036,"Oberengstringen, Zentrum",47.4094311111111,8.46193111111111,2984,OBEE
2036,"Oberengstringen, Zentrum",47.4094311111111,8.46193111111111,2984,OBEE
1370,"Regensdorf, Zentrum",47.431125,8.46620527777778,2986,ZREG07
623,"Thalwil, Zentrum",47.29513,8.56431361111111,2989,TZEN01
2846,"Fällanden, Zil",47.3726191666667,8.63555972222222,2999,FZIL
2846,"Fällanden, Zil",47.3726191666667,8.63555972222222,2999,FZIL
2694,"Zürich, Orionstrasse",47.4167716666667,8.56628722222222,3001,ORIO
2694,"Zürich, Orionstrasse",47.4167716666667,8.56628722222222,3001,ORIO
2103,"Zollikerberg, Station",47.3460461111111,8.60218083333333,3002,ZOBE
2696,"Zollikon, Bahnhof",47.3375966666667,8.56989388888889,3003,BZOL
2699,"Zürich, Zoo",47.3817105555556,8.57159805555556,3005,ZOO
2721,"Zürich, Zweiackerstrasse",47.35708,8.59805305555555,3011,ZWEI
2721,"Zürich, Zweiackerstrasse",47.35708,8.59805305555555,3011,ZWEI
2731,"Zürich, Zwielplatz",47.4021675,8.49641,3015,ZWIE
2731,"Zürich, Zwielplatz",47.4021675,8.49641,3015,ZWIE
2738,"Zürich, Zwinglihaus",47.3712763888889,8.51610861111111,3018,ZWIN
2738,"Zürich, Zwinglihaus",47.3712763888889,8.51610861111111,3018,ZWIN
2738,"Zürich, Zwinglihaus",47.3712763888889,8.51610861111111,3018,ZWIN
2738,"Zürich, Zwinglihaus",47.3712763888889,8.51610861111111,3018,ZWIN
2250,"Zürich, Zypressenstrasse",47.3768588888889,8.51357305555556,3019,ZYPR
2250,"Zürich, Zypressenstrasse",47.3768588888889,8.51357305555556,3019,ZYPR
2250,"Zürich, Zypressenstrasse",47.3768588888889,8.51357305555556,3019,ZYPR
2250,"Zürich, Zypressenstrasse",47.3768588888889,8.51357305555556,3019,ZYPR
1874,"Zürich, Bahnhof Affoltern",47.4208847222222,8.50733111111111,3021,BAFF
1874,"Zürich, Bahnhof Affoltern",47.4208847222222,8.50733111111111,3021,BAFF
1874,"Zürich, Bahnhof Affoltern",47.4208847222222,8.50733111111111,3021,BAFF
2540,"Zürich, Bahnhof Altstetten",47.3910719444444,8.48804361111111,3022,BALT
2540,"Zürich, Bahnhof Altstetten",47.3910719444444,8.48804361111111,3022,BALT
2540,"Zürich, Bahnhof Altstetten",47.3910719444444,8.48804361111111,3022,BALT
1893,"Zürich, Bahnhof Enge",47.3640363888889,8.53131972222222,3026,ENGE
1893,"Zürich, Bahnhof Enge",47.3640363888889,8.53131972222222,3026,ENGE
1893,"Zürich, Bahnhof Enge",47.3640363888889,8.53131972222222,3026,ENGE
1893,"Zürich, Bahnhof Enge",47.3640363888889,8.53131972222222,3026,ENGE
588,"Zürich Flughafen, Bahnhof",47.4502816666667,8.56410611111111,3027,FLUG07
588,"Zürich Flughafen, Bahnhof",47.4502816666667,8.56410611111111,3027,FLUG07
2756,"Zürich, Bahnhof Hardbrücke",47.3851838888889,8.5169725,3029,HSBB
2756,"Zürich, Bahnhof Hardbrücke",47.3851838888889,8.5169725,3029,HSBB
2756,"Zürich, Bahnhof Hardbrücke",47.3851838888889,8.5169725,3029,HSBB
1829,"Zürich, Bahnhof Oerlikon",47.4110988888889,8.54360111111111,3034,BOER
1829,"Zürich, Bahnhof Oerlikon",47.4110988888889,8.54360111111111,3034,BOER
1829,"Zürich, Bahnhof Oerlikon",47.4110988888889,8.54360111111111,3034,BOER
1829,"Zürich, Bahnhof Oerlikon",47.4110988888889,8.54360111111111,3034,BOER
1829,"Zürich, Bahnhof Oerlikon",47.4110988888889,8.54360111111111,3034,BOER
1829,"Zürich, Bahnhof Oerlikon",47.4110988888889,8.54360111111111,3034,BOER
1829,"Zürich, Bahnhof Oerlikon",47.4110988888889,8.54360111111111,3034,BOER
2111,"Zürich, Bahnhof Stadelhofen",47.3661330555556,8.54729,3039,BSTA
2111,"Zürich, Bahnhof Stadelhofen",47.3661330555556,8.54729,3039,BSTA
2788,"Zürich, Bahnhof Tiefenbrunnen",47.3502880555556,8.56076583333333,3041,BTIE
2788,"Zürich, Bahnhof Tiefenbrunnen",47.3502880555556,8.56076583333333,3041,BTIE
2788,"Zürich, Bahnhof Tiefenbrunnen",47.3502880555556,8.56076583333333,3041,BTIE
2788,"Zürich, Bahnhof Tiefenbrunnen",47.3502880555556,8.56076583333333,3041,BTIE
2788,"Zürich, Bahnhof Tiefenbrunnen",47.3502880555556,8.56076583333333,3041,BTIE
2788,"Zürich, Bahnhof Tiefenbrunnen",47.3502880555556,8.56076583333333,3041,BTIE
1557,"Zürich, Bahnhof Wiedikon",47.3711519444444,8.52362694444444,3042,BWIE
1557,"Zürich, Bahnhof Wiedikon",47.3711519444444,8.52362694444444,3042,BWIE
1557,"Zürich, Bahnhof Wiedikon",47.3711519444444,8.52362694444444,3042,BWIE
1557,"Zürich, Bahnhof Wiedikon",47.3711519444444,8.52362694444444,3042,BWIE
1557,"Zürich, Bahnhof Wiedikon",47.3711519444444,8.52362694444444,3042,BWIE
1557,"Zürich, Bahnhof Wiedikon",47.3711519444444,8.52362694444444,3042,BWIE
2789,"Zürich, Bahnhof Wipkingen",47.3937816666667,8.52861777777778,3043,BWIP
2789,"Zürich, Bahnhof Wipkingen",47.3937816666667,8.52861777777778,3043,BWIP
2025,"Zürich, Bhf Wollishofen (Tram)",47.3472091666667,8.5329075,3044,BWOL
2025,"Zürich, Bhf Wollishofen (Tram)",47.3472091666667,8.5329075,3044,BWOL
2791,"Zürich, Zürichbergstrasse",47.3787897222222,8.56397444444444,3045,ZUER
2791,"Zürich, Zürichbergstrasse",47.3787897222222,8.56397444444444,3045,ZUER
1843,"Zürich, Riedhofstrasse",47.4095025,8.47911805555556,3122,RIEH
1843,"Zürich, Riedhofstrasse",47.4095025,8.47911805555556,3122,RIEH
2777,"Zürich, Im Gut",47.3738883333333,8.50313166666667,3123,IMGU
2777,"Zürich, Im Gut",47.3738883333333,8.50313166666667,3123,IMGU
2797,"Fällanden, Jugendherberge",47.3597844444444,8.65348777777778,3133,FJUG
2797,"Fällanden, Jugendherberge",47.3597844444444,8.65348777777778,3133,FJUG
2798,"Maur, Aschbach",47.3520719444444,8.66063194444444,3134,MASC
2798,"Maur, Aschbach",47.3520719444444,8.66063194444444,3134,MASC
2800,"Zürich, Kappenbühlweg",47.4030863888889,8.49821666666667,3138,KABU
2800,"Zürich, Kappenbühlweg",47.4030863888889,8.49821666666667,3138,KABU
2801,"Zürich, Brunaupark",47.3583558333333,8.5184025,3139,BRUP
2813,"Zürich, Landiwiese",47.3499222222222,8.53423361111111,3141,LAND
2813,"Zürich, Landiwiese",47.3499222222222,8.53423361111111,3141,LAND
1879,"Dübendorf, Bahnhof Nord",47.4011466666667,8.6209675,3146,BDUN
1879,"Dübendorf, Bahnhof Nord",47.4011466666667,8.6209675,3146,BDUN
2817,"Zürich, Letzipark",47.3878211111111,8.4992775,3148,LETP
2817,"Zürich, Letzipark",47.3878211111111,8.4992775,3148,LETP
2837,"Zürich, Am Börtli",47.3997030555556,8.50714472222222,3150,AMBO
2837,"Zürich, Am Börtli",47.3997030555556,8.50714472222222,3150,AMBO
2838,"Zürich, Appenzellerstrasse",47.3989213888889,8.50901027777778,3151,APPE
2838,"Zürich, Appenzellerstrasse",47.3989213888889,8.50901027777778,3151,APPE
2839,"Zürich, Juchhof",47.3982438888889,8.47377138888889,3153,JUCH
2839,"Zürich, Juchhof",47.3982438888889,8.47377138888889,3153,JUCH
1884,"Zürich, Messe/Hallenstadion",47.41083,8.550075,3154,MEHA
1884,"Zürich, Messe/Hallenstadion",47.41083,8.550075,3154,MEHA
1884,"Zürich, Messe/Hallenstadion",47.41083,8.550075,3154,MEHA
1884,"Zürich, Messe/Hallenstadion",47.41083,8.550075,3154,MEHA
2840,"Zürich, Schulhaus Altweg",47.3726394444444,8.49415583333333,3155,ALTW
2840,"Zürich, Schulhaus Altweg",47.3726394444444,8.49415583333333,3155,ALTW
2334,"Weiningen ZH, Aegelsee",47.4156547222222,8.44458472222222,3183,AEGW
2558,"Rüschlikon, Bahnhof",47.3080713888889,8.55351694444444,3186,RUEB
2558,"Rüschlikon, Bahnhof",47.3080713888889,8.55351694444444,3186,RUEB
2559,"Rüschlikon, Säumerstrasse",47.3079894444444,8.54612222222222,3187,RSAU
2559,"Rüschlikon, Säumerstrasse",47.3079894444444,8.54612222222222,3187,RSAU
1392,"Wallisellen, Florastrasse",47.4117916666667,8.59695944444444,3241,WFLO07
1392,"Wallisellen, Florastrasse",47.4117916666667,8.59695944444444,3241,WFLO07
1398,"Glattbrugg, Giebeleichstrasse",47.4284583333333,8.56332694444444,3246,GIEB07
833,"Kilchberg ZH, Hallenbad",47.3184105555556,8.53907638888889,3254,HALL
1959,"Dietikon, Stadthaus",47.4025011111111,8.40056361111111,3344,DSTA
1959,"Dietikon, Stadthaus",47.4025011111111,8.40056361111111,3344,DSTA
309,"Waldegg, Birmensdorferstrasse",47.3681247222222,8.46307166666667,3356,WalBiSt
2895,"Fällanden, Wigarten",47.3713147222222,8.64163472222222,3368,FWIG
2895,"Fällanden, Wigarten",47.3713147222222,8.64163472222222,3368,FWIG
1729,"Thalwil, Post",47.2967919444444,8.56269583333333,3378,PTHA01
2426,"Zürich, Glockenacker",47.3609066666667,8.59859972222222,3444,GLOK
2426,"Zürich, Glockenacker",47.3609066666667,8.59859972222222,3444,GLOK
2561,"Zürich, Bircher-Benner",47.3756513888889,8.56479527777778,3445,BIBE
2561,"Zürich, Bircher-Benner",47.3756513888889,8.56479527777778,3445,BIBE
1916,"Zürich, Ettenfeld",47.4257055555556,8.55405694444444,3446,ETTE
1919,"Zürich, Bahnhof Oerlikon Ost",47.41357,8.54574611111111,3447,BOEO
1919,"Zürich, Bahnhof Oerlikon Ost",47.41357,8.54574611111111,3447,BOEO
1919,"Zürich, Bahnhof Oerlikon Ost",47.41357,8.54574611111111,3447,BOEO
1919,"Zürich, Bahnhof Oerlikon Ost",47.41357,8.54574611111111,3447,BOEO
1919,"Zürich, Bahnhof Oerlikon Ost",47.41357,8.54574611111111,3447,BOEO
1919,"Zürich, Bahnhof Oerlikon Ost",47.41357,8.54574611111111,3447,BOEO
1919,"Zürich, Bahnhof Oerlikon Ost",47.41357,8.54574611111111,3447,BOEO
2562,"Zürich, Birchstrasse",47.4130902777778,8.53569138888889,3449,BIRC
2562,"Zürich, Birchstrasse",47.4130902777778,8.53569138888889,3449,BIRC
2584,"Zürich, Chaletweg",47.4134477777778,8.53118027777778,3450,CHAL
2584,"Zürich, Chaletweg",47.4134477777778,8.53118027777778,3450,CHAL
2586,"Zürich, Mötteliweg",47.413915,8.52647222222222,3451,MOTT
2586,"Zürich, Mötteliweg",47.413915,8.52647222222222,3451,MOTT
2589,"Zürich, Technopark",47.3891594444444,8.51506611111111,3453,TECH
2589,"Zürich, Technopark",47.3891594444444,8.51506611111111,3453,TECH
2593,"Zürich, Lerchenrain",47.4147311111111,8.50939416666667,3457,LERA
2593,"Zürich, Lerchenrain",47.4147311111111,8.50939416666667,3457,LERA
2595,"Zürich, Schauenberg",47.4162475,8.50688027777778,3458,PSCH
2595,"Zürich, Schauenberg",47.4162475,8.50688027777778,3458,PSCH
2360,"Spreitenbach, Asp",47.4142863888889,8.37954777777778,3460,ASPS
2360,"Spreitenbach, Asp",47.4142863888889,8.37954777777778,3460,ASPS
2620,"Zürich, Freiestrasse",47.3628530555556,8.56275111111111,3466,FRST
2620,"Zürich, Freiestrasse",47.3628530555556,8.56275111111111,3466,FRST
2436,"Binz bei Maur, Fridlimatt",47.3593291666667,8.62459166666667,3467,FMAT
2436,"Binz bei Maur, Fridlimatt",47.3593291666667,8.62459166666667,3467,FMAT
2621,"Zürich, Hofstrasse",47.3732172222222,8.56167194444444,3469,HOFS
2621,"Zürich, Hofstrasse",47.3732172222222,8.56167194444444,3469,HOFS
2637,"Zürich, Hölderlinsteig",47.3672416666667,8.56471055555556,3470,HSTG
2637,"Zürich, Hölderlinsteig",47.3672416666667,8.56471055555556,3470,HSTG
2369,"Dietikon, Schönenwerd",47.3972533333333,8.42448611111111,3472,SWER
2369,"Dietikon, Schönenwerd",47.3972533333333,8.42448611111111,3472,SWER
2643,"Zürich, Schweizer Rück",47.3597877777778,8.53540277777778,3477,SRUC
2643,"Zürich, Schweizer Rück",47.3597877777778,8.53540277777778,3477,SRUC
2327,"Spreitenbach, Brüel",47.4182802777778,8.37175972222222,3520,BRUL
2327,"Spreitenbach, Brüel",47.4182802777778,8.37175972222222,3520,BRUL
2551,"Zürich, Sukkulentensammlung",47.3547344444444,8.53424,3522,SUKK
2551,"Zürich, Sukkulentensammlung",47.3547344444444,8.53424,3522,SUKK
2648,"Zürich, Schützenhaus Höngg",47.4094777777778,8.49671388888889,3566,SHOE
2683,"Zürich, Berufswahlschule",47.4042980555556,8.53328472222222,3587,BERU
2684,"Zürich, Vulkanstrasse",47.3944180555556,8.4840825,3588,VULK
2684,"Zürich, Vulkanstrasse",47.3944180555556,8.4840825,3588,VULK
2412,"Urdorf, Oberurdorf",47.3777575,8.42281444444444,3589,OBUR
2412,"Urdorf, Oberurdorf",47.3777575,8.42281444444444,3589,OBUR
2412,"Urdorf, Oberurdorf",47.3777575,8.42281444444444,3589,OBUR
2483,"Urdorf, Sonne",47.3810952777778,8.42277027777778,3590,SONU
2483,"Urdorf, Sonne",47.3810952777778,8.42277027777778,3590,SONU
2709,"Zürich, EPI-Klinik",47.3488236111111,8.57072777777778,3594,EPIK
2709,"Zürich, EPI-Klinik",47.3488236111111,8.57072777777778,3594,EPIK
2638,"Zürich, Botanischer Garten",47.3597386111111,8.55741666666667,3645,BOGA
2638,"Zürich, Botanischer Garten",47.3597386111111,8.55741666666667,3645,BOGA
2638,"Zürich, Botanischer Garten",47.3597386111111,8.55741666666667,3645,BOGA
2638,"Zürich, Botanischer Garten",47.3597386111111,8.55741666666667,3645,BOGA
2639,"Zürich, Klosbach",47.3703286111111,8.56362361111111,3648,KLOB
2639,"Zürich, Klosbach",47.3703286111111,8.56362361111111,3648,KLOB
2564,"Zürich, Albisriederdörfli",47.3754311111111,8.48490194444445,3705,ALBD
2564,"Zürich, Albisriederdörfli",47.3754311111111,8.48490194444445,3705,ALBD
2566,"Zürich, Althoos",47.4108255555556,8.52403722222222,3706,AHOS
2566,"Zürich, Althoos",47.4108255555556,8.52403722222222,3706,AHOS
2599,"Zürich, Binz Center",47.3618783333333,8.51107361111111,3714,BINC
2601,"Zürich, Bocklerstrasse",47.4025938888889,8.56736527777778,3715,BOST
2604,"Zürich, Chinagarten",47.3542855555556,8.55297388888889,3717,CHIN
2604,"Zürich, Chinagarten",47.3542855555556,8.55297388888889,3717,CHIN
2366,"Glanzenberg, Bahnhof",47.3985994444444,8.41956944444444,3727,GLAN
2366,"Glanzenberg, Bahnhof",47.3985994444444,8.41956944444444,3727,GLAN
2366,"Glanzenberg, Bahnhof",47.3985994444444,8.41956944444444,3727,GLAN
1692,"Volketswil, Hofwisen",47.3811858333333,8.6728875,3740,VHOF07
1692,"Volketswil, Hofwisen",47.3811858333333,8.6728875,3740,VHOF07
2663,"Küsnacht ZH, Zentrum",47.3182302777778,8.58169277777778,3744,ZENK
2663,"Küsnacht ZH, Zentrum",47.3182302777778,8.58169277777778,3744,ZENK
2398,"Schlieren, Steinacker",47.3962752777778,8.4263225,3748,STAK
2398,"Schlieren, Steinacker",47.3962752777778,8.4263225,3748,STAK
2451,"Zürich, Hallenbad Oerlikon",47.4108216666667,8.55562694444444,3760,HALO
2451,"Zürich, Hallenbad Oerlikon",47.4108216666667,8.55562694444444,3760,HALO
2453,"Zürich, Max-Bill-Platz",47.4141016666667,8.54096,3764,MAXB
2453,"Zürich, Max-Bill-Platz",47.4141016666667,8.54096,3764,MAXB
2707,"Zürich, Staudenbühl",47.4199955555556,8.535065,3768,STBU
2707,"Zürich, Staudenbühl",47.4199955555556,8.535065,3768,STBU
2506,"Zürich, Bhf Wollishofen (Bus)",47.347835,8.53427027777778,3774,BWOB
2506,"Zürich, Bhf Wollishofen (Bus)",47.347835,8.53427027777778,3774,BWOB
1524,"Kilchberg ZH, Bendlikon",47.3220555555556,8.55039222222222,3775,BEND
1524,"Kilchberg ZH, Bendlikon",47.3220555555556,8.55039222222222,3775,BEND
2082,"Dübendorf, Ringwiesen",47.3973538888889,8.60412222222222,3785,RINW
2082,"Dübendorf, Ringwiesen",47.3973538888889,8.60412222222222,3785,RINW
2758,"Zürich, Okenstrasse",47.3882066666667,8.53411972222222,3786,OKEN
2761,"Zürich, Maillartstrasse",47.4162025,8.5319125,3788,MAIL
2761,"Zürich, Maillartstrasse",47.4162025,8.5319125,3788,MAIL
2763,"Zürich, Bollingerweg",47.41431,8.53796944444444,3789,BOLL
2763,"Zürich, Bollingerweg",47.41431,8.53796944444444,3789,BOLL
1530,"Kilchberg ZH, Mythenstrasse",47.3262208333333,8.54071916666667,3796,MYTH
2775,"Zürich, Albisrank",47.3797144444444,8.49460055555556,3797,ARAN
2775,"Zürich, Albisrank",47.3797144444444,8.49460055555556,3797,ARAN
2018,"Dietikon, Vorstadt",47.4090097222222,8.39775277777778,3798,VORS
2018,"Dietikon, Vorstadt",47.4090097222222,8.39775277777778,3798,VORS
2609,"Zürich, Neunbrunnen",47.416395,8.53817138888889,3804,NBRU
2609,"Zürich, Neunbrunnen",47.416395,8.53817138888889,3804,NBRU
2387,"Killwangen, Bahnhof",47.4327725,8.35466166666667,3822,BKIS
2536,"Zürich, Bahnhof Altstetten N",47.3921455555556,8.48968083333333,5001,BALN
2536,"Zürich, Bahnhof Altstetten N",47.3921455555556,8.48968083333333,5001,BALN
2534,"Zürich, Solidapark",47.3875969444444,8.4883725,6003,SOLP
2675,"Rüschlikon, Rebsteig",47.3122355555556,8.55078666666667,6009,RREB
2695,"Zürich, Winzerstrasse Süd",47.4033488888889,8.48620527777778,6015,WINS
2695,"Zürich, Winzerstrasse Süd",47.4033488888889,8.48620527777778,6015,WINS
2700,"Zürich, Waffenplatz-/Bederstr.",47.3616441666667,8.526505,6019,WAFB
2716,"Zürich, Glaubtenstrasse Süd",47.4135941666667,8.518475,6020,GLAS
2251,"Zürich, Depot 4 Elisabethenstr",47.3733386111111,8.52163222222222,6030,DEP4
2299,"Zürich, Depot 5 Hard",47.3914925,8.52145805555556,6031,DEP5
2081,"Zürich, Depot 7 Irchel",47.3950752777778,8.54397083333333,6032,DEP7
2300,"Zürich, Depot 8 Oerlikon",47.4095502777778,8.54845833333333,6033,DEP8
2144,"Zürich, Garage 6 Hardau",47.3824838888889,8.50646861111111,6034,GAR6
2144,"Zürich, Garage 6 Hardau",47.3824838888889,8.50646861111111,6034,GAR6
2301,"Zürich, Garage 9 Hagenholz",47.4150280555556,8.55780888888889,6035,GAR9
2514,"Dietikon, Garage Limmatbus AG",47.4087541666667,8.40897111111111,6038,GALI
2011,"Zollikon, Garage G.-Maurer-Str",47.3437383333333,8.56735083333333,6044,GAAZ
2023,"Zürich, Depot 2 Wollishofen",47.3373858333333,8.53106527777778,6055,DEP2
2743,"Zürich, Stierenried",47.4166036111111,8.53514111111111,6117,SRIE
2743,"Zürich, Stierenried",47.4166036111111,8.53514111111111,6117,SRIE
2767,"Gockhausen, Ursprungstrasse",47.3847302777778,8.59997888888889,6214,URSP
2767,"Gockhausen, Ursprungstrasse",47.3847302777778,8.59997888888889,6214,URSP
373,"Zürich Flughafen, Fracht",47.4521055555556,8.57076194444444,6232,FRAF07
373,"Zürich Flughafen, Fracht",47.4521055555556,8.57076194444444,6232,FRAF07
373,"Zürich Flughafen, Fracht",47.4521055555556,8.57076194444444,6232,FRAF07
1534,"Zürich, Werd",47.3723822222222,8.52671083333333,6238,WERE
1534,"Zürich, Werd",47.3723822222222,8.52671083333333,6238,WERE
2847,"Zürich, Himmeri",47.4199447222222,8.53850972222222,6250,HIMM
2847,"Zürich, Himmeri",47.4199447222222,8.53850972222222,6250,HIMM
2114,"Zollikerb., Langägerten/Spital",47.34654,8.5977975,6254,LAEN
2114,"Zollikerb., Langägerten/Spital",47.34654,8.5977975,6254,LAEN
1885,"Zürich, Bahnhof Oerlikon Nord",47.41267,8.5417,6255,BOEN
1885,"Zürich, Bahnhof Oerlikon Nord",47.41267,8.5417,6255,BOEN
1885,"Zürich, Bahnhof Oerlikon Nord",47.41267,8.5417,6255,BOEN
1885,"Zürich, Bahnhof Oerlikon Nord",47.41267,8.5417,6255,BOEN
2055,"Dietikon, Stadthalle Ost",47.4055636111111,8.39027138888889,6261,STHA
2056,"Dietikon, Silbern",47.4182338888889,8.39286972222222,6262,DSIL
2351,"Urdorf, Heinrich-Stutz-Strasse",47.3705338888889,8.42501166666667,6297,HEIN
2013,"Spreitenbach, Breiti",47.4297133333333,8.35931472222222,6300,SBRE
2013,"Spreitenbach, Breiti",47.4297133333333,8.35931472222222,6300,SBRE
2014,"Spreitenbach, Furttalstrasse",47.4255877777778,8.36458472222222,6301,FURT
2014,"Spreitenbach, Furttalstrasse",47.4255877777778,8.36458472222222,6301,FURT
2015,"Spreitenbach, Interio",47.4271355555556,8.36450555555555,6303,SINT
2015,"Spreitenbach, Interio",47.4271355555556,8.36450555555555,6303,SINT
2773,"Zürich, Köschenrüti",47.4289633333333,8.53698611111111,6304,KOES
2773,"Zürich, Köschenrüti",47.4289633333333,8.53698611111111,6304,KOES
1456,"Dübendorf, Sonnental",47.3956377777778,8.60301166666667,6346,DSON
1456,"Dübendorf, Sonnental",47.3956377777778,8.60301166666667,6346,DSON
1456,"Dübendorf, Sonnental",47.3956377777778,8.60301166666667,6346,DSON
1540,"Schlieren, Bahnhof",47.3993933333333,8.44854361111111,6347,SCHB
1540,"Schlieren, Bahnhof",47.3993933333333,8.44854361111111,6347,SCHB
2329,"Wangen, Stierwisen",47.4092816666667,8.64171722222222,6364,STIE
2254,"Zürich, Zentralwerkstätte",47.3838097222222,8.49138388888889,6425,ZW
2160,"Adliswil, Grüt",47.3221408333333,8.52895416666667,6437,GRUT
2160,"Adliswil, Grüt",47.3221408333333,8.52895416666667,6437,GRUT
1552,"Rüschlikon, Loorain",47.3074075,8.54208972222222,6447,LRAI
1552,"Rüschlikon, Loorain",47.3074075,8.54208972222222,6447,LRAI
1553,"Rüschlikon, Eggrain",47.3044633333333,8.54425055555556,6448,EGGR
1553,"Rüschlikon, Eggrain",47.3044633333333,8.54425055555556,6448,EGGR
2257,"Zürich, Oerlikerhus",47.41746,8.55375166666667,6459,ZOER
2257,"Zürich, Oerlikerhus",47.41746,8.55375166666667,6459,ZOER
1928,"Zürich, Fernsehstudio",47.4183752777778,8.56141777777778,6460,ZFER
1928,"Zürich, Fernsehstudio",47.4183752777778,8.56141777777778,6460,ZFER
1931,Glattpark,47.4205633333333,8.55656027777778,6461,GGLA07
1931,Glattpark,47.4205633333333,8.55656027777778,6461,GGLA07
1931,Glattpark,47.4205633333333,8.55656027777778,6461,GGLA07
1931,Glattpark,47.4205633333333,8.55656027777778,6461,GGLA07
1931,Glattpark,47.4205633333333,8.55656027777778,6461,GGLA07
2350,"Spreitenbach, Ikea",47.4223538888889,8.37411055555556,6462,IKEA
1851,"Zürich, Sihlcity",47.3580230555556,8.52223472222222,6463,SIHC
1736,Garage Adliswil,47.3126811111111,8.5266975,6485,GARG01
1377,"Kloten Balsberg, Bahnhof",47.4414977777778,8.56826916666667,6506,BABH07
1377,"Kloten Balsberg, Bahnhof",47.4414977777778,8.56826916666667,6506,BABH07
1378,"Rümlang, Bäuler",47.4348577777778,8.55735055555555,6507,RBAU07
1378,"Rümlang, Bäuler",47.4348577777778,8.55735055555555,6507,RBAU07
1379,"Glattbrugg, Lindberghplatz",47.4250955555556,8.56040638888889,6508,GLIN07
1379,"Glattbrugg, Lindberghplatz",47.4250955555556,8.56040638888889,6508,GLIN07
1379,"Glattbrugg, Lindberghplatz",47.4250955555556,8.56040638888889,6508,GLIN07
2469,"Zürich, Bahnhof Affoltern Süd",47.42064,8.50850555555555,6511,BAFS
2397,"Spreitenb, Center Spreitenbach",47.4221830555556,8.36965472222222,6586,CESP
2397,"Spreitenb, Center Spreitenbach",47.4221830555556,8.36965472222222,6586,CESP
2446,"Effretikon, Garage Andres",47.4199908333333,8.6847075,6591,GAAN
2142,"Adliswil, Moos",47.3253225,8.53114888888889,6592,ADMO
2142,"Adliswil, Moos",47.3253225,8.53114888888889,6592,ADMO
2143,"Adliswil, Eichenweg",47.3202619444444,8.53357194444444,6593,EWEG
2143,"Adliswil, Eichenweg",47.3202619444444,8.53357194444444,6593,EWEG
1510,"Adliswil, Ahornweg",47.3190783333333,8.53412972222222,6594,AHOR
1510,"Adliswil, Ahornweg",47.3190783333333,8.53412972222222,6594,AHOR
2681,"Aesch bei Maur, Zollingerheim",47.3266591666667,8.65645138888889,6599,ZOLL
2681,"Aesch bei Maur, Zollingerheim",47.3266591666667,8.65645138888889,6599,ZOLL
2855,"Aesch bei Maur, Im Brünneli",47.3302408333333,8.65460138888889,6600,IMBR
2855,"Aesch bei Maur, Im Brünneli",47.3302408333333,8.65460138888889,6600,IMBR
2557,"Rüschlikon, Merisbrunnen",47.3013697222222,8.54885444444444,6625,MERI
2423,"Zürich, Blumenfeldstrasse",47.4238730555556,8.50515111111111,6626,BLUM
2423,"Zürich, Blumenfeldstrasse",47.4238730555556,8.50515111111111,6626,BLUM
2424,"Zürich, Aspholz",47.4250186111111,8.50091944444444,6627,ASPH
2424,"Zürich, Aspholz",47.4250186111111,8.50091944444444,6627,ASPH
2425,"Zürich, Mühlacker",47.4262119444444,8.49633055555556,6628,MUEH
2613,"Zürich, Würzgraben",47.3921011111111,8.49454111111111,6648,WURZ
2613,"Zürich, Würzgraben",47.3921011111111,8.49454111111111,6648,WURZ
2078,"Wallisellen, Neugut",47.4049377777778,8.60400972222222,6659,WNEU07
2078,"Wallisellen, Neugut",47.4049377777778,8.60400972222222,6659,WNEU07
2079,"Dübendorf, Giessen",47.4020336111111,8.60745722222222,6660,DGIE07
2079,"Dübendorf, Giessen",47.4020336111111,8.60745722222222,6660,DGIE07
2388,"Spreitenbach, Altersheim",47.4189013888889,8.36836472222222,6663,SPAL
2388,"Spreitenbach, Altersheim",47.4189013888889,8.36836472222222,6663,SPAL
1784,"Rümlang, Hörnlistrasse",47.4458797222222,8.53065222222222,6682,RHOE07
1784,"Rümlang, Hörnlistrasse",47.4458797222222,8.53065222222222,6682,RHOE07
2490,"Dietikon, Gyrhalden",47.4006527777778,8.39133638888889,6693,DGYR
2490,"Dietikon, Gyrhalden",47.4006527777778,8.39133638888889,6693,DGYR
2491,"Dietikon, Weidstrasse",47.4008605555556,8.38794861111111,6694,WEST
2491,"Dietikon, Weidstrasse",47.4008605555556,8.38794861111111,6694,WEST
2492,"Dietikon, Lerzen",47.4023283333333,8.38443722222222,6695,DLAE
2492,"Dietikon, Lerzen",47.4023283333333,8.38443722222222,6695,DLAE
2496,"Dietikon, Weinberg",47.4019963888889,8.38102666666667,6698,DWEI
2352,"Unterengstringen, Langwisen",47.4087991666667,8.44787388888889,6724,ULAN
2352,"Unterengstringen, Langwisen",47.4087991666667,8.44787388888889,6724,ULAN
2187,"Wallisellen, Glatt",47.409495,8.59808055555555,6735,WGLA07
2187,"Wallisellen, Glatt",47.409495,8.59808055555555,6735,WGLA07
2377,"Birmensdorf ZH, Ristet",47.3654194444444,8.42878277777778,6744,RIST
2893,"Zürich, Schiffbau",47.3876791666667,8.51946,6759,SBAU
2893,"Zürich, Schiffbau",47.3876791666667,8.51946,6759,SBAU
2893,"Zürich, Schiffbau",47.3876791666667,8.51946,6759,SBAU
2893,"Zürich, Schiffbau",47.3876791666667,8.51946,6759,SBAU
2498,"Kilchberg ZH, Obere Hornhalde",47.3315886111111,8.5381575,6780,KOBE
2499,"Kilchberg ZH, Emilienheim",47.3292313888889,8.53818833333333,6781,KEMI
2500,"Kilchberg ZH, Breitloo",47.3261877777778,8.539475,6782,KBRE
2906,"Unterengstringen, Sennenbüel",47.4131355555556,8.4487775,6825,USEN
2944,"D'dorf, Bhf. Nord (Wangenstr.)",47.4011230555556,8.62525222222222,9999,VBG01
1638,"Adliswil, Bahnhof",47.311515,8.52443861111111,28,BADL01
2016,"Unterengstringen, Aegelsee",47.4149419444444,8.44587,29,AEGU
2809,"Zürich, Albisgütli",47.3519097222222,8.50740527777778,46,ALBG
2810,"Zürich, Albisrieden",47.3744630555556,8.48452555555555,47,ALBR
2810,"Zürich, Albisrieden",47.3744630555556,8.48452555555555,47,ALBR
2810,"Zürich, Albisrieden",47.3744630555556,8.48452555555555,47,ALBR
1535,"Zürich, Albisriederplatz",47.3781144444444,8.50914888888889,48,ALBP
1535,"Zürich, Albisriederplatz",47.3781144444444,8.50914888888889,48,ALBP
1535,"Zürich, Albisriederplatz",47.3781144444444,8.50914888888889,48,ALBP
1535,"Zürich, Albisriederplatz",47.3781144444444,8.50914888888889,48,ALBP
1535,"Zürich, Albisriederplatz",47.3781144444444,8.50914888888889,48,ALBP
1535,"Zürich, Albisriederplatz",47.3781144444444,8.50914888888889,48,ALBP
1535,"Zürich, Albisriederplatz",47.3781144444444,8.50914888888889,48,ALBP
2833,"Zollikon, Allmend",47.3427772222222,8.582735,53,ZALL
2833,"Zollikon, Allmend",47.3427772222222,8.582735,53,ZALL
2835,"Küsnacht ZH, Allmend",47.3158447222222,8.59719722222222,54,KALL
2853,"Zürich, Alte Trotte",47.3977216666667,8.50740972222222,67,ATRO
2853,"Zürich, Alte Trotte",47.3977216666667,8.50740972222222,67,ATRO
2867,"Zürich, Altenhofstrasse",47.3551927777778,8.56146444444444,70,ALTE
2867,"Zürich, Altenhofstrasse",47.3551927777778,8.56146444444444,70,ALTE
1911,"Kilchberg ZH, Altersheim",47.3200147222222,8.54065722222222,75,ALHK
1911,"Kilchberg ZH, Altersheim",47.3200147222222,8.54065722222222,75,ALHK
2326,"Dübendorf, Alterszentrum",47.3877794444444,8.62040333333333,81,ALTZ
1580,"Zürich, Altried (Zone 10)",47.4061738888889,8.59109194444444,88,ALTR
1580,"Zürich, Altried (Zone 10)",47.4061738888889,8.59109194444444,88,ALTR
1580,"Zürich, Altried (Zone 10)",47.4061738888889,8.59109194444444,88,ALTR
1580,"Zürich, Altried (Zone 10)",47.4061738888889,8.59109194444444,88,ALTR
2530,"Zürich, Am Suteracher",47.3909847222222,8.46974944444444,92,AMSU
2530,"Zürich, Am Suteracher",47.3909847222222,8.46974944444444,92,AMSU
1628,"Thalwil, Archstrasse",47.2960083333333,8.56187277777778,99,ARC101
1846,"Zürich, Aubrücke",47.4108611111111,8.57188666666667,114,AUBR
1846,"Zürich, Aubrücke",47.4108611111111,8.57188666666667,114,AUBR
1846,"Zürich, Aubrücke",47.4108611111111,8.57188666666667,114,AUBR
2782,"Kilchberg ZH, Auf Brunnen",47.3187616666667,8.54563166666667,118,AUFB
2782,"Kilchberg ZH, Auf Brunnen",47.3187616666667,8.54563166666667,118,AUFB
2028,"Weiningen ZH, Ausserdorf",47.4178811111111,8.43888861111111,125,AUSW
2028,"Weiningen ZH, Ausserdorf",47.4178811111111,8.43888861111111,125,AUSW
1677,"Zürich, Ausserdorfstrasse",47.4245663888889,8.54851527777778,128,AUSS
1677,"Zürich, Ausserdorfstrasse",47.4245663888889,8.54851527777778,128,AUSS
2083,"Zürich, Auzelg",47.4165277777778,8.56825666666667,132,ZAUZ
2083,"Zürich, Auzelg",47.4165277777778,8.56825666666667,132,ZAUZ
2083,"Zürich, Auzelg",47.4165277777778,8.56825666666667,132,ZAUZ
2083,"Zürich, Auzelg",47.4165277777778,8.56825666666667,132,ZAUZ
2083,"Zürich, Auzelg",47.4165277777778,8.56825666666667,132,ZAUZ
2816,"Zürich, Auzelg Ost",47.4133972222222,8.57195388888889,134,AUZO
2818,"Zürich, Bachmattstrasse",47.3891783333333,8.48260222222222,137,BACH
2818,"Zürich, Bachmattstrasse",47.3891783333333,8.48260222222222,137,BACH
2090,"Zürich, Bad Allenmoos",47.4059477777778,8.53763805555556,144,BADA
2090,"Zürich, Bad Allenmoos",47.4059477777778,8.53763805555556,144,BADA
2158,"Adliswil, Badstrasse",47.3135630555556,8.53330222222222,148,ABAD01
2158,"Adliswil, Badstrasse",47.3135630555556,8.53330222222222,148,ABAD01
1852,"Zürich, Bahnhof Enge/Bederstr.",47.3645325,8.53020472222222,199,BEDE
1852,"Zürich, Bahnhof Enge/Bederstr.",47.3645325,8.53020472222222,199,BEDE
2856,"Rüschlikon, Schlossstrasse",47.3135580555556,8.55356555555556,410,BSRU
2856,"Rüschlikon, Schlossstrasse",47.3135580555556,8.55356555555556,410,BSRU
1890,"Zürich, Neumühlequai",47.3774883333333,8.54316944444444,411,NEUQ
1541,"Zürich, Bahnhofplatz/HB",47.3773394444444,8.53898166666667,412,BPLA
1541,"Zürich, Bahnhofplatz/HB",47.3773394444444,8.53898166666667,412,BPLA
1541,"Zürich, Bahnhofplatz/HB",47.3773394444444,8.53898166666667,412,BPLA
1541,"Zürich, Bahnhofplatz/HB",47.3773394444444,8.53898166666667,412,BPLA
1541,"Zürich, Bahnhofplatz/HB",47.3773394444444,8.53898166666667,412,BPLA
1542,"Zürich, Bahnhofquai/HB",47.3773052777778,8.54162944444444,413,BQUA
1542,"Zürich, Bahnhofquai/HB",47.3773052777778,8.54162944444444,413,BQUA
1542,"Zürich, Bahnhofquai/HB",47.3773052777778,8.54162944444444,413,BQUA
2057,"Dietikon, Bahnhofstrasse",47.4043002777778,8.40378916666667,414,BSTD
1895,"Zürich, Bahnhofstrasse/HB",47.3759686111111,8.5393375,416,BSTR
1895,"Zürich, Bahnhofstrasse/HB",47.3759686111111,8.5393375,416,BSTR
2866,"Zollikon, Bahnübergang",47.3460480555556,8.56573222222222,418,BUEB
2866,"Zollikon, Bahnübergang",47.3460480555556,8.56573222222222,418,BUEB
2121,"Zürich, Balgrist",47.3547011111111,8.57492944444444,421,BALG
2121,"Zürich, Balgrist",47.3547011111111,8.57492944444444,421,BALG
2063,"Bergdietikon, Baltenschwil",47.3930691666667,8.39253861111111,425,DBAL
2063,"Bergdietikon, Baltenschwil",47.3930691666667,8.39253861111111,425,DBAL
2547,"Zürich, Baslerstrasse",47.3886813888889,8.48979777777778,427,BASL
2547,"Zürich, Baslerstrasse",47.3886813888889,8.48979777777778,427,BASL
2086,"Zürich, Beckenhof",47.3842538888889,8.54021027777778,435,BECK
2086,"Zürich, Beckenhof",47.3842538888889,8.54021027777778,435,BECK
1920,"Wallisellen, Belair",47.4134372222222,8.584305,439,BELA07
1920,"Wallisellen, Belair",47.4134372222222,8.584305,439,BELA07
1565,"Zürich, Bellevue",47.3670505555556,8.54447583333333,440,BELL
1565,"Zürich, Bellevue",47.3670505555556,8.54447583333333,440,BELL
1565,"Zürich, Bellevue",47.3670505555556,8.54447583333333,440,BELL
1565,"Zürich, Bellevue",47.3670505555556,8.54447583333333,440,BELL
1565,"Zürich, Bellevue",47.3670505555556,8.54447583333333,440,BELL
1565,"Zürich, Bellevue",47.3670505555556,8.54447583333333,440,BELL
1565,"Zürich, Bellevue",47.3670505555556,8.54447583333333,440,BELL
1565,"Zürich, Bellevue",47.3670505555556,8.54447583333333,440,BELL
1565,"Zürich, Bellevue",47.3670505555556,8.54447583333333,440,BELL
2592,"Rüschlikon, Belvoir",47.3071197222222,8.54864361111111,443,BELV
2592,"Rüschlikon, Belvoir",47.3071197222222,8.54864361111111,443,BELV
2430,Benglen,47.3612094444444,8.63852083333333,445,BENG
2431,"Benglen, Gerlisbrunnen",47.3608472222222,8.63267444444444,446,BGER
2431,"Benglen, Gerlisbrunnen",47.3608472222222,8.63267444444444,446,BGER
2433,"Ebmatingen, Benkelsteg",47.3463416666667,8.6512625,447,BENK
2433,"Ebmatingen, Benkelsteg",47.3463416666667,8.6512625,447,BENK
2433,"Ebmatingen, Benkelsteg",47.3463416666667,8.6512625,447,BENK
2437,"Zürich, Berghaldenstrasse",47.358665,8.58978722222222,455,BERH
2437,"Zürich, Berghaldenstrasse",47.358665,8.58978722222222,455,BERH
2363,"Bergdietikon, Bergli",47.3909808333333,8.38944138888889,457,BERL
2363,"Bergdietikon, Bergli",47.3909808333333,8.38944138888889,457,BERL
2642,"Küsnacht ZH, Bergstrasse",47.3145363888889,8.58951027777778,462,BEST
2642,"Küsnacht ZH, Bergstrasse",47.3145363888889,8.58951027777778,462,BEST
2276,"Zürich, Berninaplatz",47.4036011111111,8.54787083333333,465,BERN
2276,"Zürich, Berninaplatz",47.4036011111111,8.54787083333333,465,BERN
2376,"Bergdietikon, Bernold",47.3879516666667,8.38808944444444,466,BOLD
2376,"Bergdietikon, Bernold",47.3879516666667,8.38808944444444,466,BOLD
2645,"Zürich, Bernoulli-Häuser",47.3938627777778,8.50839222222222,467,BERO
2645,"Zürich, Bernoulli-Häuser",47.3938627777778,8.50839222222222,467,BERO
2646,"Zürich, Bertastrasse",47.3741,8.51329222222222,468,BERT
2646,"Zürich, Bertastrasse",47.3741,8.51329222222222,468,BERT
2655,"Zürich, Besenrainstrasse",47.3456827777778,8.52784694444444,470,BESE
2656,"Zürich, Bethanien",47.3808813888889,8.55605916666667,471,BETH
2659,"Zollikon, Beugi",47.3364208333333,8.57513555555555,476,BEUG
2659,"Zollikon, Beugi",47.3364208333333,8.57513555555555,476,BEUG
1306,"Zürich, Bezirksgebäude",47.3741216666667,8.52539555555555,478,BEZI
1306,"Zürich, Bezirksgebäude",47.3741216666667,8.52539555555555,478,BEZI
2404,"Zürich, Billoweg",47.3514463888889,8.53192222222222,488,BILO
2404,"Zürich, Billoweg",47.3514463888889,8.53192222222222,488,BILO
2677,"Zürich, Grubenstrasse",47.3628261111111,8.51168833333333,489,GRUB
2448,"Binz bei Maur, Post",47.357135,8.62802444444444,490,MPOS
2448,"Binz bei Maur, Post",47.357135,8.62802444444444,490,MPOS
2891,"Zürich, Binz",47.3630436111111,8.51825916666667,493,BINZ
2891,"Zürich, Binz",47.3630436111111,8.51825916666667,493,BINZ
1797,"Zürich, Birch-/Glatttalstrasse",47.4277533333333,8.54594805555556,497,BIGL
1797,"Zürich, Birch-/Glatttalstrasse",47.4277533333333,8.54594805555556,497,BIGL
2702,"Zürich, Birchdörfli",47.4078786111111,8.53036361111111,498,BIRD
2702,"Zürich, Birchdörfli",47.4078786111111,8.53036361111111,498,BIRD
809,"Birmensdorf ZH, Bahnhof",47.3569688888889,8.43865972222222,501,BirmBhf
2059,"Dietikon, Birmensdorferstrasse",47.3977391666667,8.41708972222222,502,BIRM
2059,"Dietikon, Birmensdorferstrasse",47.3977391666667,8.41708972222222,502,BIRM
2059,"Dietikon, Birmensdorferstrasse",47.3977391666667,8.41708972222222,502,BIRM
2869,"Zürich, Bleulerstrasse",47.3471958333333,8.57160638888889,508,BLEU
2554,"Rüschlikon, Bodengasse",47.3107980555556,8.55246305555556,515,BODE
2554,"Rüschlikon, Bodengasse",47.3107980555556,8.55246305555556,515,BODE
2556,"Küsnacht ZH, Boglerenstrasse",47.3260327777778,8.58224361111111,516,BOGL
2556,"Küsnacht ZH, Boglerenstrasse",47.3260327777778,8.58224361111111,516,BOGL
2605,"Zürich, Brandschenkestrasse",47.36925,8.53264472222222,530,BRAN
2605,"Zürich, Brandschenkestrasse",47.36925,8.53264472222222,530,BRAN
2533,"Zürich, Bristenstrasse",47.3898955555556,8.48684166666667,542,BRIS
2533,"Zürich, Bristenstrasse",47.3898955555556,8.48684166666667,542,BRIS
2631,"Fällanden, Bruggacher",47.3757838888889,8.63136694444444,544,FBRU
2631,"Fällanden, Bruggacher",47.3757838888889,8.63136694444444,544,FBRU
2632,"Zürich, Brunau/Mutschellenstr.",47.353975,8.52609694444445,546,BRUM
2632,"Zürich, Brunau/Mutschellenstr.",47.353975,8.52609694444445,546,BRUM
2367,"Zürich, Brunaustrasse",47.3563372222222,8.53219444444444,547,BRUN
2367,"Zürich, Brunaustrasse",47.3563372222222,8.53219444444444,547,BRUN
2368,"Fahrweid, Brunaustrasse",47.4141891666667,8.41407888888889,548,BRUS
2368,"Fahrweid, Brunaustrasse",47.4141891666667,8.41407888888889,548,BRUS
2380,"Schlieren, Brunngasse",47.3963761111111,8.44798305555556,550,BRUG
2380,"Schlieren, Brunngasse",47.3963761111111,8.44798305555556,550,BRUG
1309,"Zürich, Bucheggplatz",47.3985463888889,8.53272944444444,564,BUCH
1309,"Zürich, Bucheggplatz",47.3985463888889,8.53272944444444,564,BUCH
1309,"Zürich, Bucheggplatz",47.3985463888889,8.53272944444444,564,BUCH
1309,"Zürich, Bucheggplatz",47.3985463888889,8.53272944444444,564,BUCH
1309,"Zürich, Bucheggplatz",47.3985463888889,8.53272944444444,564,BUCH
1309,"Zürich, Bucheggplatz",47.3985463888889,8.53272944444444,564,BUCH
1309,"Zürich, Bucheggplatz",47.3985463888889,8.53272944444444,564,BUCH
1309,"Zürich, Bucheggplatz",47.3985463888889,8.53272944444444,564,BUCH
1309,"Zürich, Bucheggplatz",47.3985463888889,8.53272944444444,564,BUCH
1309,"Zürich, Bucheggplatz",47.3985463888889,8.53272944444444,564,BUCH
2682,"Zürich, Buhnstrasse",47.4225519444444,8.53864305555556,573,BUHN
2682,"Zürich, Buhnstrasse",47.4225519444444,8.53864305555556,573,BUHN
2682,"Zürich, Buhnstrasse",47.4225519444444,8.53864305555556,573,BUHN
2682,"Zürich, Buhnstrasse",47.4225519444444,8.53864305555556,573,BUHN
2295,"Zürich, Burgwies",47.3581888888889,8.57152222222222,580,BURG
2295,"Zürich, Burgwies",47.3581888888889,8.57152222222222,580,BURG
2488,"Zürich, Butzenstrasse",47.34153,8.52942972222222,586,BUTZ
2488,"Zürich, Butzenstrasse",47.34153,8.52942972222222,586,BUTZ
2488,"Zürich, Butzenstrasse",47.34153,8.52942972222222,586,BUTZ
2488,"Zürich, Butzenstrasse",47.34153,8.52942972222222,586,BUTZ
1521,"Kilchberg ZH, Bächlerstrasse",47.3291825,8.53956333333333,589,BAEC
2538,"Zürich, Bändliweg",47.3964347222222,8.48487722222222,592,BAEN
2538,"Zürich, Bändliweg",47.3964347222222,8.48487722222222,592,BAEN
2538,"Zürich, Bändliweg",47.3964347222222,8.48487722222222,592,BAEN
2744,"Zürich, Bärenbohlstrasse",47.4254733333333,8.50914611111111,594,BAER
2744,"Zürich, Bärenbohlstrasse",47.4254733333333,8.50914611111111,594,BAER
2228,"Zürich, Börsenstrasse",47.3680391666667,8.53983583333333,601,BOES
2228,"Zürich, Börsenstrasse",47.3680391666667,8.53983583333333,601,BOES
2583,"Küsnacht ZH, Bühlstrasse",47.3320058333333,8.57951361111111,610,BUEH
2583,"Küsnacht ZH, Bühlstrasse",47.3320058333333,8.57951361111111,610,BUEH
2590,"Zürich, Bürkliplatz",47.3670088888889,8.54034416666667,615,BURK
2590,"Zürich, Bürkliplatz",47.3670088888889,8.54034416666667,615,BURK
2590,"Zürich, Bürkliplatz",47.3670088888889,8.54034416666667,615,BURK
2428,"Zürich, Carl-Spitteler-Strasse",47.3583491666667,8.58625916666667,617,CARL
2428,"Zürich, Carl-Spitteler-Strasse",47.3583491666667,8.58625916666667,617,CARL
1938,"Zürich, Central",47.3771819444444,8.54322916666667,619,CENT
1938,"Zürich, Central",47.3771819444444,8.54322916666667,619,CENT
1938,"Zürich, Central",47.3771819444444,8.54322916666667,619,CENT
1938,"Zürich, Central",47.3771819444444,8.54322916666667,619,CENT
1938,"Zürich, Central",47.3771819444444,8.54322916666667,619,CENT
1938,"Zürich, Central",47.3771819444444,8.54322916666667,619,CENT
1938,"Zürich, Central",47.3771819444444,8.54322916666667,619,CENT
1938,"Zürich, Central",47.3771819444444,8.54322916666667,619,CENT
1938,"Zürich, Central",47.3771819444444,8.54322916666667,619,CENT
1938,"Zürich, Central",47.3771819444444,8.54322916666667,619,CENT
1938,"Zürich, Central",47.3771819444444,8.54322916666667,619,CENT
1437,"Volketswil, Volkiland Chliriet",47.3820188888889,8.66730472222222,632,VCHL07
1437,"Volketswil, Volkiland Chliriet",47.3820188888889,8.66730472222222,632,VCHL07
1686,"Regensdorf, Chrüzächer",47.4277986111111,8.47306,641,CRUZ07
1686,"Regensdorf, Chrüzächer",47.4277986111111,8.47306,641,CRUZ07
2290,"Zürich, Dammweg",47.3886533333333,8.52587722222222,648,DAMM
2290,"Zürich, Dammweg",47.3886533333333,8.52587722222222,648,DAMM
2139,"Zürich, Dangelstrasse",47.3343922222222,8.52991888888889,649,DANG
2139,"Zürich, Dangelstrasse",47.3343922222222,8.52991888888889,649,DANG
1312,"Dietikon, Bahnhof",47.4059961111111,8.40428361111111,657,BDIE
1312,"Dietikon, Bahnhof",47.4059961111111,8.40428361111111,657,BDIE
1312,"Dietikon, Bahnhof",47.4059961111111,8.40428361111111,657,BDIE
1312,"Dietikon, Bahnhof",47.4059961111111,8.40428361111111,657,BDIE
1312,"Dietikon, Bahnhof",47.4059961111111,8.40428361111111,657,BDIE
1312,"Dietikon, Bahnhof",47.4059961111111,8.40428361111111,657,BDIE
1312,"Dietikon, Bahnhof",47.4059961111111,8.40428361111111,657,BDIE
2455,"Maur, Dorf",47.3403405555556,8.66838277777778,678,MDOR
2455,"Maur, Dorf",47.3403405555556,8.66838277777778,678,MDOR
2455,"Maur, Dorf",47.3403405555556,8.66838277777778,678,MDOR
2455,"Maur, Dorf",47.3403405555556,8.66838277777778,678,MDOR
2458,"Schwerzenbach ZH, Dorf",47.3803638888889,8.65198333333333,684,DORS
2458,"Schwerzenbach ZH, Dorf",47.3803638888889,8.65198333333333,684,DORS
729,"Uitikon, Dorf",47.3704225,8.45448277777778,687,UitiDrf
2460,"Zürich, Dorflinde",47.4074677777778,8.54893166666667,694,DORF
2460,"Zürich, Dorflinde",47.4074677777778,8.54893166666667,694,DORF
2354,"Geroldswil, Dorfstrasse",47.4198647222222,8.41304305555555,701,DOGE
2354,"Geroldswil, Dorfstrasse",47.4198647222222,8.41304305555555,701,DOGE
2320,"Zumikon, Dorfzentrum",47.3329169444444,8.62301222222222,705,DOZE
2435,"Zürich, Dreispitz",47.4107933333333,8.56779055555556,708,DREI
2435,"Zürich, Dreispitz",47.4107933333333,8.56779055555556,708,DREI
2624,"Zürich, Dreiwiesen",47.3787219444444,8.5755075,711,DREW
2624,"Zürich, Dreiwiesen",47.3787219444444,8.5755075,711,DREW
2438,"Zürich, Drusbergstrasse",47.3603752777778,8.57877027777778,713,DRUS
2438,"Zürich, Drusbergstrasse",47.3603752777778,8.57877027777778,713,DRUS
2628,"Zollikon, Dufourplatz",47.3405577777778,8.57248444444445,715,DUFP
2628,"Zollikon, Dufourplatz",47.3405577777778,8.57248444444445,715,DUFP
2628,"Zollikon, Dufourplatz",47.3405577777778,8.57248444444445,715,DUFP
2532,"Zürich, Dunkelhölzli",47.3888133333333,8.47015777777778,716,DUNK
2532,"Zürich, Dunkelhölzli",47.3888133333333,8.47015777777778,716,DUNK
2630,"Zürich, Toni-Areal",47.3902455555556,8.51047861111111,718,TONA
2630,"Zürich, Toni-Areal",47.3902455555556,8.51047861111111,718,TONA
2381,"Dietikon, Dörfli",47.4006636111111,8.40626694444444,725,DOER
2381,"Dietikon, Dörfli",47.4006636111111,8.40626694444444,725,DOER
2385,"Bergdietikon, Dünni",47.3944666666667,8.39321277777778,729,DUEN
2666,"Zürich, ETH Hönggerberg",47.4083902777778,8.50738527777778,735,ETHH
2666,"Zürich, ETH Hönggerberg",47.4083902777778,8.50738527777778,735,ETHH
2666,"Zürich, ETH Hönggerberg",47.4083902777778,8.50738527777778,735,ETHH
2666,"Zürich, ETH Hönggerberg",47.4083902777778,8.50738527777778,735,ETHH
2666,"Zürich, ETH Hönggerberg",47.4083902777778,8.50738527777778,735,ETHH
1308,"Zürich, ETH/Universitätsspital",47.3760394444444,8.54699277777778,736,ETHZ
1308,"Zürich, ETH/Universitätsspital",47.3760394444444,8.54699277777778,736,ETHZ
1308,"Zürich, ETH/Universitätsspital",47.3760394444444,8.54699277777778,736,ETHZ
1308,"Zürich, ETH/Universitätsspital",47.3760394444444,8.54699277777778,736,ETHZ
1308,"Zürich, ETH/Universitätsspital",47.3760394444444,8.54699277777778,736,ETHZ
2443,Ebmatingen,47.3514127777778,8.64117277777778,738,EBMA
2443,Ebmatingen,47.3514127777778,8.64117277777778,738,EBMA
2410,"Unterengstringen, Eckstein",47.4104366666667,8.44884555555556,743,ECKS
2410,"Unterengstringen, Eckstein",47.4104366666667,8.44884555555556,743,ECKS
2411,"Oberengstringen, Eggbühl",47.4055911111111,8.47395388888889,748,EGGB
2411,"Oberengstringen, Eggbühl",47.4055911111111,8.47395388888889,748,EGGB
2452,"Fällanden, Eggler",47.3717083333333,8.63405638888889,750,EGGL
2452,"Fällanden, Eggler",47.3717083333333,8.63405638888889,750,EGGL
2484,"Dübendorf, Eglishölzli",47.4054744444444,8.6303575,753,EGLI
2486,"Kindhausen AG, Eichholz",47.3944283333333,8.38034972222222,757,EIHH
2486,"Kindhausen AG, Eichholz",47.3944283333333,8.38034972222222,757,EIHH
2457,"Zürich, Einfangstrasse",47.4159608333333,8.51257277777778,767,EINF
2457,"Zürich, Einfangstrasse",47.4159608333333,8.51257277777778,767,EINF
2742,"Zürich, Elektrowatt",47.3573602777778,8.55035083333333,769,ELWA
2779,"Zürich, Englischviertelstrasse",47.3664397222222,8.55745138888889,788,ENGV
2779,"Zürich, Englischviertelstrasse",47.3664397222222,8.55745138888889,788,ENGV
1574,"Zürich, Escher-Wyss-Platz",47.3893205555556,8.52092388888889,799,EWYS
1574,"Zürich, Escher-Wyss-Platz",47.3893205555556,8.52092388888889,799,EWYS
1574,"Zürich, Escher-Wyss-Platz",47.3893205555556,8.52092388888889,799,EWYS
1574,"Zürich, Escher-Wyss-Platz",47.3893205555556,8.52092388888889,799,EWYS
1574,"Zürich, Escher-Wyss-Platz",47.3893205555556,8.52092388888889,799,EWYS
1574,"Zürich, Escher-Wyss-Platz",47.3893205555556,8.52092388888889,799,EWYS
1574,"Zürich, Escher-Wyss-Platz",47.3893205555556,8.52092388888889,799,EWYS
1574,"Zürich, Escher-Wyss-Platz",47.3893205555556,8.52092388888889,799,EWYS
1574,"Zürich, Escher-Wyss-Platz",47.3893205555556,8.52092388888889,799,EWYS
1574,"Zürich, Escher-Wyss-Platz",47.3893205555556,8.52092388888889,799,EWYS
2635,"Zürich, Eschergutweg",47.3963861111111,8.51273472222222,800,EGUT
2635,"Zürich, Eschergutweg",47.3963861111111,8.51273472222222,800,EGUT
2389,"Fahrweid, Au",47.4117502777778,8.41424638888889,815,FAAU
2389,"Fahrweid, Au",47.4117502777778,8.41424638888889,815,FAAU
1310,"Zürich, Farbhof",47.3906494444444,8.47908111111111,821,FARB
1310,"Zürich, Farbhof",47.3906494444444,8.47908111111111,821,FARB
1310,"Zürich, Farbhof",47.3906494444444,8.47908111111111,821,FARB
1310,"Zürich, Farbhof",47.3906494444444,8.47908111111111,821,FARB
1310,"Zürich, Farbhof",47.3906494444444,8.47908111111111,821,FARB
1310,"Zürich, Farbhof",47.3906494444444,8.47908111111111,821,FARB
2669,"Zollikon, Felbenstrasse",47.3434216666667,8.56936916666667,824,FBST
2669,"Zollikon, Felbenstrasse",47.3434216666667,8.56936916666667,824,FBST
1520,"Urdorf, Feldegg",47.3921505555556,8.42796805555555,831,FEGG
1520,"Urdorf, Feldegg",47.3921505555556,8.42796805555555,831,FEGG
2689,"Zürich, Feldeggstrasse",47.3604288888889,8.55206972222222,832,FELD
2689,"Zürich, Feldeggstrasse",47.3604288888889,8.55206972222222,832,FELD
2447,"Pfaffhausen, Feldhof",47.3638836111111,8.61994,833,FELH
2710,"Zürich, Winzerhalde",47.4001422222222,8.49459444444445,2934,WINH
2710,"Zürich, Winzerhalde",47.4001422222222,8.49459444444445,2934,WINH
2711,"Zürich, Winzerstrasse",47.4038091666667,8.48604194444444,2935,WINZ
2711,"Zürich, Winzerstrasse",47.4038091666667,8.48604194444444,2935,WINZ
2711,"Zürich, Winzerstrasse",47.4038091666667,8.48604194444444,2935,WINZ
2712,"Zürich, Wipkingerplatz",47.3926441666667,8.5233225,2937,WIPK
2712,"Zürich, Wipkingerplatz",47.3926441666667,8.5233225,2937,WIPK
2048,"Dietikon, Gjuchstrasse",47.4080313888889,8.3931775,990,GJUC
2447,"Pfaffhausen, Feldhof",47.3638836111111,8.61994,833,FELH
2476,"Schlieren, Feldstrasse",47.4041933333333,8.44789277777778,838,FSTR
2476,"Schlieren, Feldstrasse",47.4041933333333,8.44789277777778,838,FSTR
2713,"Zürich, Fellenbergstrasse",47.3757230555556,8.48742361111111,840,FELL
2713,"Zürich, Fellenbergstrasse",47.3757230555556,8.48742361111111,840,FELL
2713,"Zürich, Fellenbergstrasse",47.3757230555556,8.48742361111111,840,FELL
2713,"Zürich, Fellenbergstrasse",47.3757230555556,8.48742361111111,840,FELL
1873,"Zürich, Felsenrainstrasse",47.4166327777778,8.54529277777778,845,FELS
1873,"Zürich, Felsenrainstrasse",47.4166327777778,8.54529277777778,845,FELS
1873,"Zürich, Felsenrainstrasse",47.4166327777778,8.54529277777778,845,FELS
2539,"Zürich, Feusisbergli",47.3925683333333,8.4707075,852,FEUS
2539,"Zürich, Feusisbergli",47.3925683333333,8.4707075,852,FEUS
2750,"Zürich, Fischerweg",47.3935180555556,8.5125975,857,FWEG
2723,"Dübendorf, Högler",47.3919419444444,8.61445527777778,1273,DHOG
1934,"Zürich, Seebacherplatz",47.4199816666667,8.5478275,1275,SEPL
1934,"Zürich, Seebacherplatz",47.4199816666667,8.5478275,1275,SEPL
1934,"Zürich, Seebacherplatz",47.4199816666667,8.5478275,1275,SEPL
1934,"Zürich, Seebacherplatz",47.4199816666667,8.5478275,1275,SEPL
2588,"Zollikon, Höhestrasse",47.3399166666667,8.58094,1277,HSTR
2588,"Zollikon, Höhestrasse",47.3399166666667,8.58094,1277,HSTR
1406,"Zürich, Hölderlinstrasse",47.3659383333333,8.56276333333333,1278,HOEL
1406,"Zürich, Hölderlinstrasse",47.3659383333333,8.56276333333333,1278,HOEL
2610,"Zürich, Hönggerberg",47.4050244444444,8.50462805555556,1280,HOEB
2610,"Zürich, Hönggerberg",47.4050244444444,8.50462805555556,1280,HOEB
2610,"Zürich, Hönggerberg",47.4050244444444,8.50462805555556,1280,HOEB
2610,"Zürich, Hönggerberg",47.4050244444444,8.50462805555556,1280,HOEB
2615,"Zürich, Höschgasse",47.3578908333333,8.55502166666667,1286,HOES
2615,"Zürich, Höschgasse",47.3578908333333,8.55502166666667,1286,HOES
2615,"Zürich, Höschgasse",47.3578908333333,8.55502166666667,1286,HOES
2489,"Zürich, Probstei",47.4003858333333,8.58607805555556,2008,PROB
2298,"Zürich, Quellenstrasse",47.3869188888889,8.52858361111111,2014,QUEL
2298,"Zürich, Quellenstrasse",47.3869188888889,8.52858361111111,2014,QUEL
1525,"Zürich, Radiostudio",47.4019341666667,8.53497166666667,2017,RADI
1525,"Zürich, Radiostudio",47.4019341666667,8.53497166666667,2017,RADI
1723,"Urdorf, Rainweg",47.3891711111111,8.42505166666667,2024,RAIW
1723,"Urdorf, Rainweg",47.3891711111111,8.42505166666667,2024,RAIW
2774,"Zürich, Rathaus",47.3718436111111,8.54272138888889,2030,RATH
2774,"Zürich, Rathaus",47.3718436111111,8.54272138888889,2030,RATH
2542,"Zürich, Rautihalde",47.3868494444444,8.47352388888889,2033,RAUH
2542,"Zürich, Rautihalde",47.3868494444444,8.47352388888889,2033,RAUH
2543,"Zürich, Rautistrasse",47.3836105555556,8.48357916666667,2034,RAUT
2543,"Zürich, Rautistrasse",47.3836105555556,8.48357916666667,2034,RAUT
2543,"Zürich, Rautistrasse",47.3836105555556,8.48357916666667,2034,RAUT
2778,"Zürich, Rebbergsteig",47.3969827777778,8.51434972222222,2035,REBE
2778,"Zürich, Rebbergsteig",47.3969827777778,8.51434972222222,2035,REBE
2780,"Itschnach, Rebweg",47.3265844444444,8.59817111111111,2038,REBW
2444,"Zürich, Waserstrasse",47.3584666666667,8.58348194444445,2836,WASE
2676,"Dübendorf, Wasserfurren",47.3941447222222,8.61102,2838,DWAS
2676,"Dübendorf, Wasserfurren",47.3941447222222,8.61102,2838,DWAS
2497,"Wangen, Weidli",47.4123533333333,8.64030138888889,2850,WELI
2720,"Rüschlikon, Weidstrasse",47.3058102777778,8.55290111111111,2852,WEID
2720,"Rüschlikon, Weidstrasse",47.3058102777778,8.55290111111111,2852,WEID
2734,"Zürich, Weihersteig",47.3981216666667,8.52817666666667,2858,WEIH
2734,"Zürich, Weihersteig",47.3981216666667,8.52817666666667,2858,WEIH
2737,"Kilchberg ZH, Weinbergstrasse",47.3321722222222,8.54298555555556,2859,WEIK
2737,"Kilchberg ZH, Weinbergstrasse",47.3321722222222,8.54298555555556,2859,WEIK
2516,"Geroldswil, Welbrig",47.4181963888889,8.41887027777778,2869,WELB
2516,"Geroldswil, Welbrig",47.4181963888889,8.41887027777778,2869,WELB
2784,"Zürich, Waidbadstrasse",47.3989905555556,8.51318472222222,2799,WAIB
2784,"Zürich, Waidbadstrasse",47.3989905555556,8.51318472222222,2799,WAIB
2614,"Zürich, Waidfussweg",47.3954472222222,8.51888888888889,2800,WAIF
2614,"Zürich, Waidfussweg",47.3954472222222,8.51888888888889,2800,WAIF
2617,"Zürich, Waidhof",47.4237525,8.52297527777778,2801,WAIH
2619,"Zürich, Waidspital",47.3995672222222,8.5207875,2803,WAIS
2619,"Zürich, Waidspital",47.3995672222222,8.5207875,2803,WAIS
2619,"Zürich, Waidspital",47.3995672222222,8.5207875,2803,WAIS
2094,"Waldburg, Station",47.3453286111111,8.59302,2807,WABG
2094,"Waldburg, Station",47.3453286111111,8.59302,2807,WABG
2375,"Zürich, Waldgarten",47.4035641666667,8.55731666666667,2814,WALD
2375,"Zürich, Waldgarten",47.4035641666667,8.55731666666667,2814,WALD
